<?xml version="1.0" encoding="UTF-8"?>
<gpx xmlns="http://www.topografix.com/GPX/1/1" xmlns:opencpn="http://www.opencpn.org" xmlns:xsi="http://www.w3.org/2001/XMLSchema-instance" xsi:schemaLocation="http://www.topografix.com/GPX/1/1 http://www.topografix.com/GPX/1/1/gpx.xsd" version="1.1" creator="vwi_waypoints_generator.py -- https://github.com/marcelrv/OpenCPN-Waypoints">
  <metadata>
    <name>AT Jachthavens</name>
    <desc>AT sluijachthaven informatie based on RWS information</desc>
    <author>
      <name>Marcel Verpaalen</name>
    </author>
    <copyright >
      <year>2022</year>
      <license>CC BY-NC-SA 4.0</license>
    </copyright>
    <time>2022-06-14T16:27:36.732000Z</time>
  </metadata>
  <wpt lat="48.4054" lon="15.6188">
    <name>Behördenhafen Krems</name>
    <desc>Locatie: Donau</desc>
    <link href="https://vaarweginformatie.nl/frp/main/#/geo/detail/VINHARBOUR/1268096">
      <text>Behördenhafen Krems detail info</text>
    </link>
    <sym>Anchor</sym>
    <extensions>
      <opencpn:scale_min_max UseScale="True" ScaleMin="160000" ScaleMax="0"></opencpn:scale_min_max>
    </extensions>
  </wpt>
  <wpt lat="48.3882" lon="15.464">
    <name>Sportboothafen Joching</name>
    <desc>Locatie: Donau</desc>
    <link href="https://vaarweginformatie.nl/frp/main/#/geo/detail/VINHARBOUR/1268099">
      <text>Sportboothafen Joching detail info</text>
    </link>
    <sym>Anchor</sym>
    <extensions>
      <opencpn:scale_min_max UseScale="True" ScaleMin="160000" ScaleMax="0"></opencpn:scale_min_max>
    </extensions>
  </wpt>
  <wpt lat="48.2905" lon="14.3399">
    <name>Tankhafen Linz</name>
    <desc>Locatie: Donau</desc>
    <link href="https://vaarweginformatie.nl/frp/main/#/geo/detail/VINHARBOUR/1268113">
      <text>Tankhafen Linz detail info</text>
    </link>
    <sym>Anchor</sym>
    <extensions>
      <opencpn:scale_min_max UseScale="True" ScaleMin="160000" ScaleMax="0"></opencpn:scale_min_max>
    </extensions>
  </wpt>
  <wpt lat="48.1425" lon="16.9026">
    <name>Hafen Bad Deutsch Altenburg</name>
    <desc>Locatie: Donau</desc>
    <link href="https://vaarweginformatie.nl/frp/main/#/geo/detail/VINHARBOUR/1268123">
      <text>Hafen Bad Deutsch Altenburg detail info</text>
    </link>
    <sym>Anchor</sym>
    <extensions>
      <opencpn:scale_min_max UseScale="True" ScaleMin="160000" ScaleMax="0"></opencpn:scale_min_max>
    </extensions>
  </wpt>
  <wpt lat="48.3892" lon="15.6951">
    <name>Hafen Theiss</name>
    <desc>Locatie: Donau</desc>
    <link href="https://vaarweginformatie.nl/frp/main/#/geo/detail/VINHARBOUR/1268124">
      <text>Hafen Theiss detail info</text>
    </link>
    <sym>Anchor</sym>
    <extensions>
      <opencpn:scale_min_max UseScale="True" ScaleMin="160000" ScaleMax="0"></opencpn:scale_min_max>
    </extensions>
  </wpt>
  <wpt lat="48.4032" lon="15.6013">
    <name>Eisenbahnbrücke Krems</name>
    <desc>Locatie: Donau</desc>
    <link href="https://vaarweginformatie.nl/frp/main/#/geo/detail/VINHARBOUR/1268131">
      <text>Eisenbahnbrücke Krems detail info</text>
    </link>
    <sym>Anchor</sym>
    <extensions>
      <opencpn:scale_min_max UseScale="True" ScaleMin="160000" ScaleMax="0"></opencpn:scale_min_max>
    </extensions>
  </wpt>
  <wpt lat="48.3378" lon="16.3217">
    <name>Hafen Korneuburg</name>
    <desc>Locatie: Donau</desc>
    <link href="https://vaarweginformatie.nl/frp/main/#/geo/detail/VINHARBOUR/1268141">
      <text>Hafen Korneuburg detail info</text>
    </link>
    <sym>Anchor</sym>
    <extensions>
      <opencpn:scale_min_max UseScale="True" ScaleMin="160000" ScaleMax="0"></opencpn:scale_min_max>
    </extensions>
  </wpt>
  <wpt lat="48.3884" lon="15.5182">
    <name>Sportboothafen MBC Sankt Pölten</name>
    <desc>Locatie: Donau</desc>
    <link href="https://vaarweginformatie.nl/frp/main/#/geo/detail/VINHARBOUR/1268202">
      <text>Sportboothafen MBC Sankt Pölten detail info</text>
    </link>
    <sym>Anchor</sym>
    <extensions>
      <opencpn:scale_min_max UseScale="True" ScaleMin="160000" ScaleMax="0"></opencpn:scale_min_max>
    </extensions>
  </wpt>
  <wpt lat="48.2241" lon="14.854">
    <name>Hafen Grein</name>
    <desc>Locatie: Donau</desc>
    <link href="https://vaarweginformatie.nl/frp/main/#/geo/detail/VINHARBOUR/1268210">
      <text>Hafen Grein detail info</text>
    </link>
    <sym>Anchor</sym>
    <extensions>
      <opencpn:scale_min_max UseScale="True" ScaleMin="160000" ScaleMax="0"></opencpn:scale_min_max>
    </extensions>
  </wpt>
  <wpt lat="48.2369" lon="14.5184">
    <name>Hafen Enns (Ennsdorf)</name>
    <desc>Locatie: Donau</desc>
    <link href="https://vaarweginformatie.nl/frp/main/#/geo/detail/VINHARBOUR/1268218">
      <text>Hafen Enns (Ennsdorf) detail info</text>
    </link>
    <sym>Anchor</sym>
    <extensions>
      <opencpn:scale_min_max UseScale="True" ScaleMin="160000" ScaleMax="0"></opencpn:scale_min_max>
    </extensions>
  </wpt>
  <wpt lat="48.3113" lon="14.3273">
    <name>Handelshafen Linz</name>
    <desc>Locatie: Donau</desc>
    <link href="https://vaarweginformatie.nl/frp/main/#/geo/detail/VINHARBOUR/1268219">
      <text>Handelshafen Linz detail info</text>
    </link>
    <sym>Anchor</sym>
    <extensions>
      <opencpn:scale_min_max UseScale="True" ScaleMin="160000" ScaleMax="0"></opencpn:scale_min_max>
    </extensions>
  </wpt>
  <wpt lat="48.172" lon="15.0937">
    <name>Hafen Ybbs</name>
    <desc>Locatie: Donau</desc>
    <link href="https://vaarweginformatie.nl/frp/main/#/geo/detail/VINHARBOUR/1268255">
      <text>Hafen Ybbs detail info</text>
    </link>
    <sym>Anchor</sym>
    <extensions>
      <opencpn:scale_min_max UseScale="True" ScaleMin="160000" ScaleMax="0"></opencpn:scale_min_max>
    </extensions>
  </wpt>
  <wpt lat="48.231" lon="15.3122">
    <name>Sportboothafen Luberegg</name>
    <desc>Locatie: Donau</desc>
    <link href="https://vaarweginformatie.nl/frp/main/#/geo/detail/VINHARBOUR/1268263">
      <text>Sportboothafen Luberegg detail info</text>
    </link>
    <sym>Anchor</sym>
    <extensions>
      <opencpn:scale_min_max UseScale="True" ScaleMin="160000" ScaleMax="0"></opencpn:scale_min_max>
    </extensions>
  </wpt>
  <wpt lat="48.3369" lon="14.0243">
    <name>Sportboothafen Brandstatt</name>
    <desc>Locatie: Donau</desc>
    <link href="https://vaarweginformatie.nl/frp/main/#/geo/detail/VINHARBOUR/1268270">
      <text>Sportboothafen Brandstatt detail info</text>
    </link>
    <sym>Anchor</sym>
    <extensions>
      <opencpn:scale_min_max UseScale="True" ScaleMin="160000" ScaleMax="0"></opencpn:scale_min_max>
    </extensions>
  </wpt>
  <wpt lat="48.3482" lon="16.2148">
    <name>Sportboothafen</name>
    <desc>Locatie: Donau</desc>
    <link href="https://vaarweginformatie.nl/frp/main/#/geo/detail/VINHARBOUR/1268276">
      <text>Sportboothafen detail info</text>
    </link>
    <sym>Anchor</sym>
    <extensions>
      <opencpn:scale_min_max UseScale="True" ScaleMin="160000" ScaleMax="0"></opencpn:scale_min_max>
    </extensions>
  </wpt>
  <wpt lat="48.2701" lon="14.3836">
    <name>Sportboothafen Rosenau</name>
    <desc>Locatie: Donau</desc>
    <link href="https://vaarweginformatie.nl/frp/main/#/geo/detail/VINHARBOUR/1268277">
      <text>Sportboothafen Rosenau detail info</text>
    </link>
    <sym>Anchor</sym>
    <extensions>
      <opencpn:scale_min_max UseScale="True" ScaleMin="160000" ScaleMax="0"></opencpn:scale_min_max>
    </extensions>
  </wpt>
  <wpt lat="48.3708" lon="15.7588">
    <name>Sportboothafen Traismauer</name>
    <desc>Locatie: Donau</desc>
    <link href="https://vaarweginformatie.nl/frp/main/#/geo/detail/VINHARBOUR/1268283">
      <text>Sportboothafen Traismauer detail info</text>
    </link>
    <sym>Anchor</sym>
    <extensions>
      <opencpn:scale_min_max UseScale="True" ScaleMin="160000" ScaleMax="0"></opencpn:scale_min_max>
    </extensions>
  </wpt>
  <wpt lat="48.3052" lon="14.3325">
    <name>Sportboothafen Steinernes Brückl</name>
    <desc>Locatie: Donau</desc>
    <link href="https://vaarweginformatie.nl/frp/main/#/geo/detail/VINHARBOUR/1268322">
      <text>Sportboothafen Steinernes Brückl detail info</text>
    </link>
    <sym>Anchor</sym>
    <extensions>
      <opencpn:scale_min_max UseScale="True" ScaleMin="160000" ScaleMax="0"></opencpn:scale_min_max>
    </extensions>
  </wpt>
  <wpt lat="48.2478" lon="15.344">
    <name>Pionierhafen Melk</name>
    <desc>Locatie: Donau</desc>
    <link href="https://vaarweginformatie.nl/frp/main/#/geo/detail/VINHARBOUR/1268331">
      <text>Pionierhafen Melk detail info</text>
    </link>
    <sym>Anchor</sym>
    <extensions>
      <opencpn:scale_min_max UseScale="True" ScaleMin="160000" ScaleMax="0"></opencpn:scale_min_max>
    </extensions>
  </wpt>
  <wpt lat="48.3367" lon="16.3248">
    <name>Sportboothafen Korneuburg</name>
    <desc>Locatie: Donau</desc>
    <link href="https://vaarweginformatie.nl/frp/main/#/geo/detail/VINHARBOUR/1268343">
      <text>Sportboothafen Korneuburg detail info</text>
    </link>
    <sym>Anchor</sym>
    <extensions>
      <opencpn:scale_min_max UseScale="True" ScaleMin="160000" ScaleMax="0"></opencpn:scale_min_max>
    </extensions>
  </wpt>
  <wpt lat="48.1554" lon="16.5291">
    <name>Hafen Wien Lobau</name>
    <desc>Locatie: Donau</desc>
    <link href="https://vaarweginformatie.nl/frp/main/#/geo/detail/VINHARBOUR/1268364">
      <text>Hafen Wien Lobau detail info</text>
    </link>
    <sym>Anchor</sym>
    <extensions>
      <opencpn:scale_min_max UseScale="True" ScaleMin="160000" ScaleMax="0"></opencpn:scale_min_max>
    </extensions>
  </wpt>
  <wpt lat="48.2111" lon="16.426">
    <name>Marina Wien</name>
    <desc>Locatie: Donau</desc>
    <link href="https://vaarweginformatie.nl/frp/main/#/geo/detail/VINHARBOUR/1268367">
      <text>Marina Wien detail info</text>
    </link>
    <sym>Anchor</sym>
    <extensions>
      <opencpn:scale_min_max UseScale="True" ScaleMin="160000" ScaleMax="0"></opencpn:scale_min_max>
    </extensions>
  </wpt>
  <wpt lat="48.3679" lon="15.4277">
    <name>Sportboothafen Spitz</name>
    <desc>Locatie: Donau</desc>
    <link href="https://vaarweginformatie.nl/frp/main/#/geo/detail/VINHARBOUR/1268376">
      <text>Sportboothafen Spitz detail info</text>
    </link>
    <sym>Anchor</sym>
    <extensions>
      <opencpn:scale_min_max UseScale="True" ScaleMin="160000" ScaleMax="0"></opencpn:scale_min_max>
    </extensions>
  </wpt>
  <wpt lat="48.2135" lon="15.143">
    <name>Sportboothafen Marbach</name>
    <desc>Locatie: Donau</desc>
    <link href="https://vaarweginformatie.nl/frp/main/#/geo/detail/VINHARBOUR/1268383">
      <text>Sportboothafen Marbach detail info</text>
    </link>
    <sym>Anchor</sym>
    <extensions>
      <opencpn:scale_min_max UseScale="True" ScaleMin="160000" ScaleMax="0"></opencpn:scale_min_max>
    </extensions>
  </wpt>
  <wpt lat="48.3185" lon="14.318">
    <name>Winterhafen Linz</name>
    <desc>Locatie: Donau</desc>
    <link href="https://vaarweginformatie.nl/frp/main/#/geo/detail/VINHARBOUR/1268393">
      <text>Winterhafen Linz detail info</text>
    </link>
    <sym>Anchor</sym>
    <extensions>
      <opencpn:scale_min_max UseScale="True" ScaleMin="160000" ScaleMax="0"></opencpn:scale_min_max>
    </extensions>
  </wpt>
  <wpt lat="48.2072" lon="16.4317">
    <name>Marina Wien</name>
    <desc>Locatie: Donau</desc>
    <link href="https://vaarweginformatie.nl/frp/main/#/geo/detail/VINHARBOUR/1268398">
      <text>Marina Wien detail info</text>
    </link>
    <sym>Anchor</sym>
    <extensions>
      <opencpn:scale_min_max UseScale="True" ScaleMin="160000" ScaleMax="0"></opencpn:scale_min_max>
    </extensions>
  </wpt>
  <wpt lat="48.3373" lon="16.161">
    <name>Sportboothafen Muckendorf</name>
    <desc>Locatie: Donau</desc>
    <link href="https://vaarweginformatie.nl/frp/main/#/geo/detail/VINHARBOUR/1268406">
      <text>Sportboothafen Muckendorf detail info</text>
    </link>
    <sym>Anchor</sym>
    <extensions>
      <opencpn:scale_min_max UseScale="True" ScaleMin="160000" ScaleMax="0"></opencpn:scale_min_max>
    </extensions>
  </wpt>
  <wpt lat="48.4036" lon="15.5953">
    <name>Sportboothafen Krems</name>
    <desc>Locatie: Donau</desc>
    <link href="https://vaarweginformatie.nl/frp/main/#/geo/detail/VINHARBOUR/1268418">
      <text>Sportboothafen Krems detail info</text>
    </link>
    <sym>Anchor</sym>
    <extensions>
      <opencpn:scale_min_max UseScale="True" ScaleMin="160000" ScaleMax="0"></opencpn:scale_min_max>
    </extensions>
  </wpt>
  <wpt lat="48.1602" lon="16.5059">
    <name>Hafen Albern</name>
    <desc>Locatie: Donau</desc>
    <link href="https://vaarweginformatie.nl/frp/main/#/geo/detail/VINHARBOUR/1268421">
      <text>Hafen Albern detail info</text>
    </link>
    <sym>Anchor</sym>
    <extensions>
      <opencpn:scale_min_max UseScale="True" ScaleMin="160000" ScaleMax="0"></opencpn:scale_min_max>
    </extensions>
  </wpt>
  <wpt lat="48.3336" lon="16.0493">
    <name>Hafenbecken Tulln</name>
    <desc>Locatie: Donau</desc>
    <link href="https://vaarweginformatie.nl/frp/main/#/geo/detail/VINHARBOUR/1268426">
      <text>Hafenbecken Tulln detail info</text>
    </link>
    <sym>Anchor</sym>
    <extensions>
      <opencpn:scale_min_max UseScale="True" ScaleMin="160000" ScaleMax="0"></opencpn:scale_min_max>
    </extensions>
  </wpt>
  <wpt lat="48.5457" lon="13.6534">
    <name>Hafen Kasten</name>
    <desc>Locatie: Donau</desc>
    <link href="https://vaarweginformatie.nl/frp/main/#/geo/detail/VINHARBOUR/1268429">
      <text>Hafen Kasten detail info</text>
    </link>
    <sym>Anchor</sym>
    <extensions>
      <opencpn:scale_min_max UseScale="True" ScaleMin="160000" ScaleMax="0"></opencpn:scale_min_max>
    </extensions>
  </wpt>
  <wpt lat="48.3338" lon="16.0698">
    <name>Sportboothafen Tulln</name>
    <desc>Locatie: Donau</desc>
    <link href="https://vaarweginformatie.nl/frp/main/#/geo/detail/VINHARBOUR/1268440">
      <text>Sportboothafen Tulln detail info</text>
    </link>
    <sym>Anchor</sym>
    <extensions>
      <opencpn:scale_min_max UseScale="True" ScaleMin="160000" ScaleMax="0"></opencpn:scale_min_max>
    </extensions>
  </wpt>
  <wpt lat="48.269" lon="14.3719">
    <name>Schwerguthafen</name>
    <desc>Locatie: Donau</desc>
    <link href="https://vaarweginformatie.nl/frp/main/#/geo/detail/VINHARBOUR/1268445">
      <text>Schwerguthafen detail info</text>
    </link>
    <sym>Anchor</sym>
    <extensions>
      <opencpn:scale_min_max UseScale="True" ScaleMin="160000" ScaleMax="0"></opencpn:scale_min_max>
    </extensions>
  </wpt>
  <wpt lat="48.1923" lon="15.0635">
    <name>Betriebshafen Austrian Hydro Power</name>
    <desc>Locatie: Donau</desc>
    <link href="https://vaarweginformatie.nl/frp/main/#/geo/detail/VINHARBOUR/1268453">
      <text>Betriebshafen Austrian Hydro Power detail info</text>
    </link>
    <sym>Anchor</sym>
    <extensions>
      <opencpn:scale_min_max UseScale="True" ScaleMin="160000" ScaleMax="0"></opencpn:scale_min_max>
    </extensions>
  </wpt>
  <wpt lat="48.2754" lon="16.3572">
    <name>Sportboothafen Kuchelau</name>
    <desc>Locatie: Donau</desc>
    <link href="https://vaarweginformatie.nl/frp/main/#/geo/detail/VINHARBOUR/1268494">
      <text>Sportboothafen Kuchelau detail info</text>
    </link>
    <sym>Anchor</sym>
    <extensions>
      <opencpn:scale_min_max UseScale="True" ScaleMin="160000" ScaleMax="0"></opencpn:scale_min_max>
    </extensions>
  </wpt>
  <wpt lat="48.2269" lon="14.5804">
    <name>Sportboothafen Au</name>
    <desc>Locatie: Donau</desc>
    <link href="https://vaarweginformatie.nl/frp/main/#/geo/detail/VINHARBOUR/1268496">
      <text>Sportboothafen Au detail info</text>
    </link>
    <sym>Anchor</sym>
    <extensions>
      <opencpn:scale_min_max UseScale="True" ScaleMin="160000" ScaleMax="0"></opencpn:scale_min_max>
    </extensions>
  </wpt>
  <wpt lat="48.34" lon="15.9374">
    <name>Sportboothafen Kleinschönbichl</name>
    <desc>Locatie: Donau</desc>
    <link href="https://vaarweginformatie.nl/frp/main/#/geo/detail/VINHARBOUR/1268508">
      <text>Sportboothafen Kleinschönbichl detail info</text>
    </link>
    <sym>Anchor</sym>
    <extensions>
      <opencpn:scale_min_max UseScale="True" ScaleMin="160000" ScaleMax="0"></opencpn:scale_min_max>
    </extensions>
  </wpt>
  <wpt lat="48.2104" lon="15.1474">
    <name>Sportboothafen Krummnussbaum</name>
    <desc>Locatie: Donau</desc>
    <link href="https://vaarweginformatie.nl/frp/main/#/geo/detail/VINHARBOUR/1268517">
      <text>Sportboothafen Krummnussbaum detail info</text>
    </link>
    <sym>Anchor</sym>
    <extensions>
      <opencpn:scale_min_max UseScale="True" ScaleMin="160000" ScaleMax="0"></opencpn:scale_min_max>
    </extensions>
  </wpt>
  <wpt lat="48.4838" lon="13.7968">
    <name>Sportboothafen Schattental</name>
    <desc>Locatie: Donau</desc>
    <link href="https://vaarweginformatie.nl/frp/main/#/geo/detail/VINHARBOUR/1268527">
      <text>Sportboothafen Schattental detail info</text>
    </link>
    <sym>Anchor</sym>
    <extensions>
      <opencpn:scale_min_max UseScale="True" ScaleMin="160000" ScaleMax="0"></opencpn:scale_min_max>
    </extensions>
  </wpt>
  <wpt lat="48.4242" lon="13.8686">
    <name>Sportboothafen Schlögen</name>
    <desc>Locatie: Donau</desc>
    <link href="https://vaarweginformatie.nl/frp/main/#/geo/detail/VINHARBOUR/1268532">
      <text>Sportboothafen Schlögen detail info</text>
    </link>
    <sym>Anchor</sym>
    <extensions>
      <opencpn:scale_min_max UseScale="True" ScaleMin="160000" ScaleMax="0"></opencpn:scale_min_max>
    </extensions>
  </wpt>
  <wpt lat="48.3781" lon="15.8659">
    <name>Sportboothafen Altenwörth</name>
    <desc>Locatie: Donau</desc>
    <link href="https://vaarweginformatie.nl/frp/main/#/geo/detail/VINHARBOUR/1268535">
      <text>Sportboothafen Altenwörth detail info</text>
    </link>
    <sym>Anchor</sym>
    <extensions>
      <opencpn:scale_min_max UseScale="True" ScaleMin="160000" ScaleMax="0"></opencpn:scale_min_max>
    </extensions>
  </wpt>
  <wpt lat="48.1696" lon="16.4872">
    <name>Hafen Freudenau</name>
    <desc>Locatie: Hafen Wien-Freudenau</desc>
    <link href="https://vaarweginformatie.nl/frp/main/#/geo/detail/VINHARBOUR/1270650">
      <text>Hafen Freudenau detail info</text>
    </link>
    <sym>Anchor</sym>
    <extensions>
      <opencpn:scale_min_max UseScale="True" ScaleMin="160000" ScaleMax="0"></opencpn:scale_min_max>
    </extensions>
  </wpt>
  <wpt lat="48.4001" lon="15.6486">
    <name>Hafen Krems</name>
    <desc>Locatie: Hafen Krems</desc>
    <link href="https://vaarweginformatie.nl/frp/main/#/geo/detail/VINHARBOUR/1270675">
      <text>Hafen Krems detail info</text>
    </link>
    <sym>Anchor</sym>
    <extensions>
      <opencpn:scale_min_max UseScale="True" ScaleMin="160000" ScaleMax="0"></opencpn:scale_min_max>
    </extensions>
  </wpt>
  <wpt lat="48.282" lon="14.3438">
    <name>Hafen Vöest</name>
    <desc>Locatie: Hafen VOEST</desc>
    <link href="https://vaarweginformatie.nl/frp/main/#/geo/detail/VINHARBOUR/1270704">
      <text>Hafen Vöest detail info</text>
    </link>
    <sym>Anchor</sym>
    <extensions>
      <opencpn:scale_min_max UseScale="True" ScaleMin="160000" ScaleMax="0"></opencpn:scale_min_max>
    </extensions>
  </wpt>
</gpx>