<?xml version="1.0" encoding="UTF-8"?>
<gpx xmlns="http://www.topografix.com/GPX/1/1" xmlns:opencpn="http://www.opencpn.org" xmlns:xsi="http://www.w3.org/2001/XMLSchema-instance" xsi:schemaLocation="http://www.topografix.com/GPX/1/1 http://www.topografix.com/GPX/1/1/gpx.xsd" version="1.1" creator="vwi_waypoints_generator.py -- https://github.com/marcelrv/OpenCPN-Waypoints">
  <metadata>
    <name>BE Bruggen</name>
    <desc>BE bruggen informatie based on RWS information</desc>
    <author>
      <name>Marcel Verpaalen</name>
    </author>
    <copyright >
      <year>2022</year>
      <license>CC BY-NC-SA 4.0</license>
    </copyright>
    <time>2025-09-02T14:59:31.197000Z</time>
  </metadata>
  <wpt lat="50.9917624551277" lon="5.70301909974723">
    <name>Brug Eisden 2</name>
    <desc>Locatie: Zuid-Willemsvaart
Type:    Vaste Brug</desc>
    <link href="https://vaarweginformatie.nl/frp/main/#/geo/detail/BRIDGE/12233">
      <text>Brug Eisden 2 online info</text>
    </link>
    <sym>Landmarks-Bridge1</sym>
    <extensions>
      <opencpn:scale_min_max UseScale="True" ScaleMin="160000" ScaleMax="0"></opencpn:scale_min_max>
    </extensions>
  </wpt>
  <wpt lat="51.0373507092946" lon="5.70062015018645">
    <name>Dilsen (B), brug in N771</name>
    <desc>Locatie: Zuid-Willemsvaart
Type:    Vaste Brug</desc>
    <link href="https://vaarweginformatie.nl/frp/main/#/geo/detail/BRIDGE/13363">
      <text>Dilsen (B), brug in N771 online info</text>
    </link>
    <sym>Landmarks-Bridge1</sym>
    <extensions>
      <opencpn:scale_min_max UseScale="True" ScaleMin="160000" ScaleMax="0"></opencpn:scale_min_max>
    </extensions>
  </wpt>
  <wpt lat="50.9809572992684" lon="5.70240263365189">
    <name>Eisden I (B), brug in  N78</name>
    <desc>Locatie: Zuid-Willemsvaart
Type:    Vaste Brug</desc>
    <link href="https://vaarweginformatie.nl/frp/main/#/geo/detail/BRIDGE/17517">
      <text>Eisden I (B), brug in  N78 online info</text>
    </link>
    <sym>Landmarks-Bridge1</sym>
    <extensions>
      <opencpn:scale_min_max UseScale="True" ScaleMin="160000" ScaleMax="0"></opencpn:scale_min_max>
    </extensions>
  </wpt>
  <wpt lat="51.1441919643702" lon="5.61526234868874">
    <name>Bree (B), brug in N73</name>
    <desc>Locatie: Zuid-Willemsvaart
Type:    Vaste Brug</desc>
    <link href="https://vaarweginformatie.nl/frp/main/#/geo/detail/BRIDGE/17705">
      <text>Bree (B), brug in N73 online info</text>
    </link>
    <sym>Landmarks-Bridge1</sym>
    <extensions>
      <opencpn:scale_min_max UseScale="True" ScaleMin="160000" ScaleMax="0"></opencpn:scale_min_max>
    </extensions>
  </wpt>
  <wpt lat="51.0127691651881" lon="5.71607708930969">
    <name>Voetbrug Lanklaar</name>
    <desc>Locatie: Zuid-Willemsvaart
Type:    Vaste Brug</desc>
    <link href="https://vaarweginformatie.nl/frp/main/#/geo/detail/BRIDGE/22767">
      <text>Voetbrug Lanklaar online info</text>
    </link>
    <sym>Landmarks-Bridge1</sym>
    <extensions>
      <opencpn:scale_min_max UseScale="True" ScaleMin="160000" ScaleMax="0"></opencpn:scale_min_max>
    </extensions>
  </wpt>
  <wpt lat="50.973981215364" lon="5.70345094041037">
    <name>Maasmechelen (B), fiets/voetbrug</name>
    <desc>Locatie: Zuid-Willemsvaart
Type:    Vaste Brug</desc>
    <link href="https://vaarweginformatie.nl/frp/main/#/geo/detail/BRIDGE/26241">
      <text>Maasmechelen (B), fiets/voetbrug online info</text>
    </link>
    <sym>Landmarks-Bridge1</sym>
    <extensions>
      <opencpn:scale_min_max UseScale="True" ScaleMin="160000" ScaleMax="0"></opencpn:scale_min_max>
    </extensions>
  </wpt>
  <wpt lat="51.0578219498832" lon="5.69609265942822">
    <name>Rotem (B), brug</name>
    <desc>Locatie: Zuid-Willemsvaart
Type:    Vaste Brug</desc>
    <link href="https://vaarweginformatie.nl/frp/main/#/geo/detail/BRIDGE/35292">
      <text>Rotem (B), brug online info</text>
    </link>
    <sym>Landmarks-Bridge1</sym>
    <extensions>
      <opencpn:scale_min_max UseScale="True" ScaleMin="160000" ScaleMax="0"></opencpn:scale_min_max>
    </extensions>
  </wpt>
  <wpt lat="51.0533794229251" lon="5.69712833685937">
    <name>Rotem, voormalige spoorbrug</name>
    <desc>Locatie: Zuid-Willemsvaart
Type:    Vaste Brug</desc>
    <link href="https://vaarweginformatie.nl/frp/main/#/geo/detail/BRIDGE/37684">
      <text>Rotem, voormalige spoorbrug online info</text>
    </link>
    <sym>Landmarks-Bridge1</sym>
    <extensions>
      <opencpn:scale_min_max UseScale="True" ScaleMin="160000" ScaleMax="0"></opencpn:scale_min_max>
    </extensions>
  </wpt>
  <wpt lat="51.1165589522497" lon="5.66627305410804">
    <name>Gruitrode-Solt (B), voetbrug</name>
    <desc>Locatie: Zuid-Willemsvaart
Type:    Vaste Brug</desc>
    <link href="https://vaarweginformatie.nl/frp/main/#/geo/detail/BRIDGE/40260">
      <text>Gruitrode-Solt (B), voetbrug online info</text>
    </link>
    <sym>Landmarks-Bridge1</sym>
    <extensions>
      <opencpn:scale_min_max UseScale="True" ScaleMin="160000" ScaleMax="0"></opencpn:scale_min_max>
    </extensions>
  </wpt>
  <wpt lat="50.9435250815037" lon="5.70739462306839">
    <name>Boorsem (B), brug in Kannegatstraat</name>
    <desc>Locatie: Zuid-Willemsvaart
Type:    Vaste Brug</desc>
    <link href="https://vaarweginformatie.nl/frp/main/#/geo/detail/BRIDGE/40561">
      <text>Boorsem (B), brug in Kannegatstraat online info</text>
    </link>
    <sym>Landmarks-Bridge1</sym>
    <extensions>
      <opencpn:scale_min_max UseScale="True" ScaleMin="160000" ScaleMax="0"></opencpn:scale_min_max>
    </extensions>
  </wpt>
  <wpt lat="51.3689791494532" lon="4.30039860814214">
    <name>Noordlandbrug (B)</name>
    <desc>Locatie: Kreekrak, Schelde-Rijnverbinding
Type:    Vaste Brug</desc>
    <link href="https://vaarweginformatie.nl/frp/main/#/geo/detail/BRIDGE/41483">
      <text>Noordlandbrug (B) online info</text>
    </link>
    <sym>Landmarks-Bridge1</sym>
    <extensions>
      <opencpn:scale_min_max UseScale="True" ScaleMin="160000" ScaleMax="0"></opencpn:scale_min_max>
    </extensions>
  </wpt>
  <wpt lat="50.961437767781" lon="5.70505070712944">
    <name>Maasmechelen (B), brug in Dr. Haubenlaan</name>
    <desc>Locatie: Zuid-Willemsvaart
Type:    Vaste Brug</desc>
    <link href="https://vaarweginformatie.nl/frp/main/#/geo/detail/BRIDGE/42953">
      <text>Maasmechelen (B), brug in Dr. Haubenlaan online info</text>
    </link>
    <sym>Landmarks-Bridge1</sym>
    <extensions>
      <opencpn:scale_min_max UseScale="True" ScaleMin="160000" ScaleMax="0"></opencpn:scale_min_max>
    </extensions>
  </wpt>
  <wpt lat="51.1791879580595" lon="5.58240648561728">
    <name>Bocholt (B), fiets/voetbrug</name>
    <desc>Locatie: Zuid-Willemsvaart
Type:    Vaste Brug</desc>
    <link href="https://vaarweginformatie.nl/frp/main/#/geo/detail/BRIDGE/43514">
      <text>Bocholt (B), fiets/voetbrug online info</text>
    </link>
    <sym>Landmarks-Bridge1</sym>
    <extensions>
      <opencpn:scale_min_max UseScale="True" ScaleMin="160000" ScaleMax="0"></opencpn:scale_min_max>
    </extensions>
  </wpt>
  <wpt lat="51.1252705230805" lon="5.64994071272899">
    <name>Brug Tongerlo (B)</name>
    <desc>Locatie: Zuid-Willemsvaart
Type:    Vaste Brug</desc>
    <link href="https://vaarweginformatie.nl/frp/main/#/geo/detail/BRIDGE/46406">
      <text>Brug Tongerlo (B) online info</text>
    </link>
    <sym>Landmarks-Bridge1</sym>
    <extensions>
      <opencpn:scale_min_max UseScale="True" ScaleMin="160000" ScaleMax="0"></opencpn:scale_min_max>
    </extensions>
  </wpt>
  <wpt lat="51.1757891245612" lon="5.59203155609822">
    <name>Bocholt (B), brug in Hamonterweg</name>
    <desc>Locatie: Zuid-Willemsvaart
Type:    Vaste Brug</desc>
    <link href="https://vaarweginformatie.nl/frp/main/#/geo/detail/BRIDGE/51852">
      <text>Bocholt (B), brug in Hamonterweg online info</text>
    </link>
    <sym>Landmarks-Bridge1</sym>
    <extensions>
      <opencpn:scale_min_max UseScale="True" ScaleMin="160000" ScaleMax="0"></opencpn:scale_min_max>
    </extensions>
  </wpt>
  <wpt lat="51.1018781341156" lon="5.68780660629272">
    <name>Geisterenbrug</name>
    <desc>Locatie: Zuid-Willemsvaart
Type:    Vaste Brug</desc>
    <link href="https://vaarweginformatie.nl/frp/main/#/geo/detail/BRIDGE/53573">
      <text>Geisterenbrug online info</text>
    </link>
    <sym>Landmarks-Bridge1</sym>
    <extensions>
      <opencpn:scale_min_max UseScale="True" ScaleMin="160000" ScaleMax="0"></opencpn:scale_min_max>
    </extensions>
  </wpt>
  <wpt lat="51.1626459906844" lon="5.60744386037705">
    <name>Brug Beek (B)</name>
    <desc>Locatie: Zuid-Willemsvaart
Type:    Vaste Brug</desc>
    <link href="https://vaarweginformatie.nl/frp/main/#/geo/detail/BRIDGE/55376">
      <text>Brug Beek (B) online info</text>
    </link>
    <sym>Landmarks-Bridge1</sym>
    <extensions>
      <opencpn:scale_min_max UseScale="True" ScaleMin="160000" ScaleMax="0"></opencpn:scale_min_max>
    </extensions>
  </wpt>
  <wpt lat="50.9136701708815" lon="3.4286757302357">
    <name>Socolbrug</name>
    <desc>Locatie: Vertakking van Zulte
Type:    Vaste Brug</desc>
    <link href="https://vaarweginformatie.nl/frp/main/#/geo/detail/BRIDGE/1302496">
      <text>Socolbrug online info</text>
    </link>
    <sym>Landmarks-Bridge1</sym>
    <extensions>
      <opencpn:scale_min_max UseScale="True" ScaleMin="160000" ScaleMax="0"></opencpn:scale_min_max>
    </extensions>
  </wpt>
  <wpt lat="51.1290613196468" lon="2.80035728695233">
    <name>Brug - E40</name>
    <desc>Locatie: IJzer
Type:    Vaste Brug</desc>
    <link href="https://vaarweginformatie.nl/frp/main/#/geo/detail/BRIDGE/1303288">
      <text>Brug - E40 online info</text>
    </link>
    <sym>Landmarks-Bridge1</sym>
    <extensions>
      <opencpn:scale_min_max UseScale="True" ScaleMin="160000" ScaleMax="0"></opencpn:scale_min_max>
    </extensions>
  </wpt>
  <wpt lat="50.9201253252059" lon="2.62290202228569">
    <name>Roesbruggebrug</name>
    <desc>Locatie: IJzer
Type:    Vaste Brug</desc>
    <link href="https://vaarweginformatie.nl/frp/main/#/geo/detail/BRIDGE/1303289">
      <text>Roesbruggebrug online info</text>
    </link>
    <sym>Landmarks-Bridge1</sym>
    <extensions>
      <opencpn:scale_min_max UseScale="True" ScaleMin="160000" ScaleMax="0"></opencpn:scale_min_max>
    </extensions>
  </wpt>
  <wpt lat="50.9594117295076" lon="2.77991034569218">
    <name>Reningebrug</name>
    <desc>Locatie: IJzer
Type:    Vaste Brug</desc>
    <link href="https://vaarweginformatie.nl/frp/main/#/geo/detail/BRIDGE/1303290">
      <text>Reningebrug online info</text>
    </link>
    <sym>Landmarks-Bridge1</sym>
    <extensions>
      <opencpn:scale_min_max UseScale="True" ScaleMin="160000" ScaleMax="0"></opencpn:scale_min_max>
    </extensions>
  </wpt>
  <wpt lat="51.1270388553416" lon="2.80186599958656">
    <name>Uniebrug</name>
    <desc>Locatie: IJzer
Type:    Vaste Brug</desc>
    <link href="https://vaarweginformatie.nl/frp/main/#/geo/detail/BRIDGE/1303292">
      <text>Uniebrug online info</text>
    </link>
    <sym>Landmarks-Bridge1</sym>
    <extensions>
      <opencpn:scale_min_max UseScale="True" ScaleMin="160000" ScaleMax="0"></opencpn:scale_min_max>
    </extensions>
  </wpt>
  <wpt lat="50.9433207493099" lon="2.67215319627127">
    <name>Stavelebrug</name>
    <desc>Locatie: IJzer
Type:    Vaste Brug</desc>
    <link href="https://vaarweginformatie.nl/frp/main/#/geo/detail/BRIDGE/1303548">
      <text>Stavelebrug online info</text>
    </link>
    <sym>Landmarks-Bridge1</sym>
    <extensions>
      <opencpn:scale_min_max UseScale="True" ScaleMin="160000" ScaleMax="0"></opencpn:scale_min_max>
    </extensions>
  </wpt>
  <wpt lat="51.1346218049577" lon="2.7585039960919">
    <name>Ieperbrug</name>
    <desc>Locatie: IJzer
Type:    Vaste Brug</desc>
    <link href="https://vaarweginformatie.nl/frp/main/#/geo/detail/BRIDGE/1303570">
      <text>Ieperbrug online info</text>
    </link>
    <sym>Landmarks-Bridge1</sym>
    <extensions>
      <opencpn:scale_min_max UseScale="True" ScaleMin="160000" ScaleMax="0"></opencpn:scale_min_max>
    </extensions>
  </wpt>
  <wpt lat="51.0301617539756" lon="2.85452271991873">
    <name>Spoorwegbrug</name>
    <desc>Locatie: IJzer
Type:    Vaste Brug</desc>
    <link href="https://vaarweginformatie.nl/frp/main/#/geo/detail/BRIDGE/1303582">
      <text>Spoorwegbrug online info</text>
    </link>
    <sym>Landmarks-Bridge1</sym>
    <extensions>
      <opencpn:scale_min_max UseScale="True" ScaleMin="160000" ScaleMax="0"></opencpn:scale_min_max>
    </extensions>
  </wpt>
  <wpt lat="51.0991557541964" lon="2.8222866922927">
    <name>Schoorbakkebrug</name>
    <desc>Locatie: IJzer
Type:    Vaste Brug</desc>
    <link href="https://vaarweginformatie.nl/frp/main/#/geo/detail/BRIDGE/1303583">
      <text>Schoorbakkebrug online info</text>
    </link>
    <sym>Landmarks-Bridge1</sym>
    <extensions>
      <opencpn:scale_min_max UseScale="True" ScaleMin="160000" ScaleMax="0"></opencpn:scale_min_max>
    </extensions>
  </wpt>
  <wpt lat="50.9496605648085" lon="2.71983640024206">
    <name>Elzendammebrug</name>
    <desc>Locatie: IJzer
Type:    Vaste Brug</desc>
    <link href="https://vaarweginformatie.nl/frp/main/#/geo/detail/BRIDGE/1303585">
      <text>Elzendammebrug online info</text>
    </link>
    <sym>Landmarks-Bridge1</sym>
    <extensions>
      <opencpn:scale_min_max UseScale="True" ScaleMin="160000" ScaleMax="0"></opencpn:scale_min_max>
    </extensions>
  </wpt>
  <wpt lat="50.9814245809701" lon="2.80597095583238">
    <name>Knokkebrug</name>
    <desc>Locatie: IJzer
Type:    Vaste Brug</desc>
    <link href="https://vaarweginformatie.nl/frp/main/#/geo/detail/BRIDGE/1303586">
      <text>Knokkebrug online info</text>
    </link>
    <sym>Landmarks-Bridge1</sym>
    <extensions>
      <opencpn:scale_min_max UseScale="True" ScaleMin="160000" ScaleMax="0"></opencpn:scale_min_max>
    </extensions>
  </wpt>
  <wpt lat="50.9503905064849" lon="2.72112176072179">
    <name>Voetgangersbrug Elzendamme</name>
    <desc>Locatie: IJzer
Type:    Vaste Brug</desc>
    <link href="https://vaarweginformatie.nl/frp/main/#/geo/detail/BRIDGE/1303588">
      <text>Voetgangersbrug Elzendamme online info</text>
    </link>
    <sym>Landmarks-Bridge1</sym>
    <extensions>
      <opencpn:scale_min_max UseScale="True" ScaleMin="160000" ScaleMax="0"></opencpn:scale_min_max>
    </extensions>
  </wpt>
  <wpt lat="51.0811525905364" lon="2.84157497435214">
    <name>Tervatebrug</name>
    <desc>Locatie: IJzer
Type:    Vaste Brug</desc>
    <link href="https://vaarweginformatie.nl/frp/main/#/geo/detail/BRIDGE/1303589">
      <text>Tervatebrug online info</text>
    </link>
    <sym>Landmarks-Bridge1</sym>
    <extensions>
      <opencpn:scale_min_max UseScale="True" ScaleMin="160000" ScaleMax="0"></opencpn:scale_min_max>
    </extensions>
  </wpt>
  <wpt lat="51.0333985357662" lon="2.85470114960654">
    <name>Hogebrug</name>
    <desc>Locatie: IJzer
Type:    Vaste Brug</desc>
    <link href="https://vaarweginformatie.nl/frp/main/#/geo/detail/BRIDGE/1303591">
      <text>Hogebrug online info</text>
    </link>
    <sym>Landmarks-Bridge1</sym>
    <extensions>
      <opencpn:scale_min_max UseScale="True" ScaleMin="160000" ScaleMax="0"></opencpn:scale_min_max>
    </extensions>
  </wpt>
  <wpt lat="50.9129181449939" lon="2.60753368140234">
    <name>Voetgangersbrug over de IJzer</name>
    <desc>Locatie: IJzer
Type:    Vaste Brug</desc>
    <link href="https://vaarweginformatie.nl/frp/main/#/geo/detail/BRIDGE/1303592">
      <text>Voetgangersbrug over de IJzer online info</text>
    </link>
    <sym>Landmarks-Bridge1</sym>
    <extensions>
      <opencpn:scale_min_max UseScale="True" ScaleMin="160000" ScaleMax="0"></opencpn:scale_min_max>
    </extensions>
  </wpt>
  <wpt lat="51.0870286396789" lon="4.35447921929226">
    <name>Spoorbrug Boom</name>
    <desc>Locatie: Rupel
Type:    Vaste Brug</desc>
    <link href="https://vaarweginformatie.nl/frp/main/#/geo/detail/BRIDGE/1305662">
      <text>Spoorbrug Boom online info</text>
    </link>
    <sym>Landmarks-Bridge1</sym>
    <extensions>
      <opencpn:scale_min_max UseScale="True" ScaleMin="160000" ScaleMax="0"></opencpn:scale_min_max>
    </extensions>
  </wpt>
  <wpt lat="51.0844079902547" lon="4.36027936248661">
    <name>Baanbrug Boom</name>
    <desc>Locatie: Rupel
Type:    Vaste Brug</desc>
    <link href="https://vaarweginformatie.nl/frp/main/#/geo/detail/BRIDGE/1305709">
      <text>Baanbrug Boom online info</text>
    </link>
    <sym>Landmarks-Bridge1</sym>
    <extensions>
      <opencpn:scale_min_max UseScale="True" ScaleMin="160000" ScaleMax="0"></opencpn:scale_min_max>
    </extensions>
  </wpt>
  <wpt lat="51.368591978019" lon="4.30036184169845">
    <name>Brug Zandvliet Noordlandbrug</name>
    <desc>Locatie: Schelde-Rijnverbinding
Type:    Vaste Brug</desc>
    <link href="https://vaarweginformatie.nl/frp/main/#/geo/detail/BRIDGE/1306462">
      <text>Brug Zandvliet Noordlandbrug online info</text>
    </link>
    <sym>Landmarks-Bridge1</sym>
    <extensions>
      <opencpn:scale_min_max UseScale="True" ScaleMin="160000" ScaleMax="0"></opencpn:scale_min_max>
    </extensions>
  </wpt>
  <wpt lat="50.8892642809901" lon="5.66211821725457">
    <name>Brug Lanaken</name>
    <desc>Locatie: Kanaal Briegden-Neerharen
Type:    Vaste Brug</desc>
    <link href="https://vaarweginformatie.nl/frp/main/#/geo/detail/BRIDGE/1307072">
      <text>Brug Lanaken online info</text>
    </link>
    <sym>Landmarks-Bridge1</sym>
    <extensions>
      <opencpn:scale_min_max UseScale="True" ScaleMin="160000" ScaleMax="0"></opencpn:scale_min_max>
    </extensions>
  </wpt>
  <wpt lat="50.8964190291572" lon="5.67472878297839">
    <name>Brug Tournebride</name>
    <desc>Locatie: Kanaal Briegden-Neerharen
Type:    Vaste Brug</desc>
    <link href="https://vaarweginformatie.nl/frp/main/#/geo/detail/BRIDGE/1307090">
      <text>Brug Tournebride online info</text>
    </link>
    <sym>Landmarks-Bridge1</sym>
    <extensions>
      <opencpn:scale_min_max UseScale="True" ScaleMin="160000" ScaleMax="0"></opencpn:scale_min_max>
    </extensions>
  </wpt>
  <wpt lat="50.9019980917457" lon="5.68339088538299">
    <name>Brug Neerharen Sluis</name>
    <desc>Locatie: Kanaal Briegden-Neerharen
Type:    Vaste Brug</desc>
    <link href="https://vaarweginformatie.nl/frp/main/#/geo/detail/BRIDGE/1307093">
      <text>Brug Neerharen Sluis online info</text>
    </link>
    <sym>Landmarks-Bridge1</sym>
    <extensions>
      <opencpn:scale_min_max UseScale="True" ScaleMin="160000" ScaleMax="0"></opencpn:scale_min_max>
    </extensions>
  </wpt>
  <wpt lat="50.8870828198897" lon="5.65834064514827">
    <name>Voetgangersbrug Lanaken</name>
    <desc>Locatie: Kanaal Briegden-Neerharen
Type:    Vaste Brug</desc>
    <link href="https://vaarweginformatie.nl/frp/main/#/geo/detail/BRIDGE/1307118">
      <text>Voetgangersbrug Lanaken online info</text>
    </link>
    <sym>Landmarks-Bridge1</sym>
    <extensions>
      <opencpn:scale_min_max UseScale="True" ScaleMin="160000" ScaleMax="0"></opencpn:scale_min_max>
    </extensions>
  </wpt>
  <wpt lat="51.0564832662448" lon="3.73851553491549">
    <name>Nieuwe Oktrooibrug</name>
    <desc>Locatie: Kanaal Gent-Terneuzen (BE)
Type:    Vaste Brug</desc>
    <link href="https://vaarweginformatie.nl/frp/main/#/geo/detail/BRIDGE/1307658">
      <text>Nieuwe Oktrooibrug online info</text>
    </link>
    <sym>Landmarks-Bridge1</sym>
    <extensions>
      <opencpn:scale_min_max UseScale="True" ScaleMin="160000" ScaleMax="0"></opencpn:scale_min_max>
    </extensions>
  </wpt>
  <wpt lat="51.0490310765448" lon="3.7382128403756">
    <name>Lousbergbrug</name>
    <desc>Locatie: Kanaal Gent-Terneuzen (BE)
Type:    Vaste Brug</desc>
    <link href="https://vaarweginformatie.nl/frp/main/#/geo/detail/BRIDGE/1307659">
      <text>Lousbergbrug online info</text>
    </link>
    <sym>Landmarks-Bridge1</sym>
    <extensions>
      <opencpn:scale_min_max UseScale="True" ScaleMin="160000" ScaleMax="0"></opencpn:scale_min_max>
    </extensions>
  </wpt>
  <wpt lat="51.0884254950296" lon="3.72730442559983">
    <name>Meulestedebrug</name>
    <desc>Locatie: Kanaal Gent-Terneuzen (BE)
Type:    Vaste Brug</desc>
    <link href="https://vaarweginformatie.nl/frp/main/#/geo/detail/BRIDGE/1307660">
      <text>Meulestedebrug online info</text>
    </link>
    <sym>Landmarks-Bridge1</sym>
    <extensions>
      <opencpn:scale_min_max UseScale="True" ScaleMin="160000" ScaleMax="0"></opencpn:scale_min_max>
    </extensions>
  </wpt>
  <wpt lat="51.0703387461447" lon="3.73027043742644">
    <name>Muidebrug</name>
    <desc>Locatie: Kanaal Gent-Terneuzen (BE)
Type:    Vaste Brug</desc>
    <link href="https://vaarweginformatie.nl/frp/main/#/geo/detail/BRIDGE/1307820">
      <text>Muidebrug online info</text>
    </link>
    <sym>Landmarks-Bridge1</sym>
    <extensions>
      <opencpn:scale_min_max UseScale="True" ScaleMin="160000" ScaleMax="0"></opencpn:scale_min_max>
    </extensions>
  </wpt>
  <wpt lat="51.056115389284" lon="3.735624081347">
    <name>De Pauwbrug</name>
    <desc>Locatie: Kanaal Gent-Terneuzen (BE)
Type:    Vaste Brug</desc>
    <link href="https://vaarweginformatie.nl/frp/main/#/geo/detail/BRIDGE/1307821">
      <text>De Pauwbrug online info</text>
    </link>
    <sym>Landmarks-Bridge1</sym>
    <extensions>
      <opencpn:scale_min_max UseScale="True" ScaleMin="160000" ScaleMax="0"></opencpn:scale_min_max>
    </extensions>
  </wpt>
  <wpt lat="51.0430935573322" lon="3.74088714790428">
    <name>Visserijkombrug</name>
    <desc>Locatie: Kanaal Gent-Terneuzen (BE)
Type:    Vaste Brug</desc>
    <link href="https://vaarweginformatie.nl/frp/main/#/geo/detail/BRIDGE/1307823">
      <text>Visserijkombrug online info</text>
    </link>
    <sym>Landmarks-Bridge1</sym>
    <extensions>
      <opencpn:scale_min_max UseScale="True" ScaleMin="160000" ScaleMax="0"></opencpn:scale_min_max>
    </extensions>
  </wpt>
  <wpt lat="51.0731126795948" lon="3.72714098266552">
    <name>Wiedauwkaaispoorbrug</name>
    <desc>Locatie: Kanaal Gent-Terneuzen (BE)
Type:    Vaste Brug</desc>
    <link href="https://vaarweginformatie.nl/frp/main/#/geo/detail/BRIDGE/1307827">
      <text>Wiedauwkaaispoorbrug online info</text>
    </link>
    <sym>Landmarks-Bridge1</sym>
    <extensions>
      <opencpn:scale_min_max UseScale="True" ScaleMin="160000" ScaleMax="0"></opencpn:scale_min_max>
    </extensions>
  </wpt>
  <wpt lat="51.0571652447129" lon="3.73891918887982">
    <name>Dampoortbrug</name>
    <desc>Locatie: Kanaal Gent-Terneuzen (BE)
Type:    Vaste Brug</desc>
    <link href="https://vaarweginformatie.nl/frp/main/#/geo/detail/BRIDGE/1307828">
      <text>Dampoortbrug online info</text>
    </link>
    <sym>Landmarks-Bridge1</sym>
    <extensions>
      <opencpn:scale_min_max UseScale="True" ScaleMin="160000" ScaleMax="0"></opencpn:scale_min_max>
    </extensions>
  </wpt>
  <wpt lat="51.0491429675882" lon="3.7381323542506">
    <name>Lousbergvoetbrug</name>
    <desc>Locatie: Kanaal Gent-Terneuzen (BE)
Type:    Vaste Brug</desc>
    <link href="https://vaarweginformatie.nl/frp/main/#/geo/detail/BRIDGE/1307831">
      <text>Lousbergvoetbrug online info</text>
    </link>
    <sym>Landmarks-Bridge1</sym>
    <extensions>
      <opencpn:scale_min_max UseScale="True" ScaleMin="160000" ScaleMax="0"></opencpn:scale_min_max>
    </extensions>
  </wpt>
  <wpt lat="51.0532434561213" lon="3.73507672322277">
    <name>Slachthuisbrug Gent</name>
    <desc>Locatie: Kanaal Gent-Terneuzen (BE)
Type:    Vaste Brug</desc>
    <link href="https://vaarweginformatie.nl/frp/main/#/geo/detail/BRIDGE/1307884">
      <text>Slachthuisbrug Gent online info</text>
    </link>
    <sym>Landmarks-Bridge1</sym>
    <extensions>
      <opencpn:scale_min_max UseScale="True" ScaleMin="160000" ScaleMax="0"></opencpn:scale_min_max>
    </extensions>
  </wpt>
  <wpt lat="50.7765265770141" lon="3.04307944187667">
    <name>Brug Wervik</name>
    <desc>Locatie: Grensleie
Type:    Vaste Brug</desc>
    <link href="https://vaarweginformatie.nl/frp/main/#/geo/detail/BRIDGE/1308926">
      <text>Brug Wervik online info</text>
    </link>
    <sym>Landmarks-Bridge1</sym>
    <extensions>
      <opencpn:scale_min_max UseScale="True" ScaleMin="160000" ScaleMax="0"></opencpn:scale_min_max>
    </extensions>
  </wpt>
  <wpt lat="50.7888787480383" lon="3.11519282663263">
    <name>Brug Halluin</name>
    <desc>Locatie: Grensleie
Type:    Vaste Brug</desc>
    <link href="https://vaarweginformatie.nl/frp/main/#/geo/detail/BRIDGE/1308928">
      <text>Brug Halluin online info</text>
    </link>
    <sym>Landmarks-Bridge1</sym>
    <extensions>
      <opencpn:scale_min_max UseScale="True" ScaleMin="160000" ScaleMax="0"></opencpn:scale_min_max>
    </extensions>
  </wpt>
  <wpt lat="50.7744088381265" lon="3.03420776324757">
    <name>Molenbrug</name>
    <desc>Locatie: Grensleie
Type:    Vaste Brug</desc>
    <link href="https://vaarweginformatie.nl/frp/main/#/geo/detail/BRIDGE/1308931">
      <text>Molenbrug online info</text>
    </link>
    <sym>Landmarks-Bridge1</sym>
    <extensions>
      <opencpn:scale_min_max UseScale="True" ScaleMin="160000" ScaleMax="0"></opencpn:scale_min_max>
    </extensions>
  </wpt>
  <wpt lat="50.7738923757247" lon="3.02415673338373">
    <name>Balokkenbrug</name>
    <desc>Locatie: Grensleie
Type:    Vaste Brug</desc>
    <link href="https://vaarweginformatie.nl/frp/main/#/geo/detail/BRIDGE/1308932">
      <text>Balokkenbrug online info</text>
    </link>
    <sym>Landmarks-Bridge1</sym>
    <extensions>
      <opencpn:scale_min_max UseScale="True" ScaleMin="160000" ScaleMax="0"></opencpn:scale_min_max>
    </extensions>
  </wpt>
  <wpt lat="50.9201248655447" lon="2.8442636569606">
    <name>Steenstratebrug</name>
    <desc>Locatie: Kanaal Ieper-IJzer
Type:    Vaste Brug</desc>
    <link href="https://vaarweginformatie.nl/frp/main/#/geo/detail/BRIDGE/1309716">
      <text>Steenstratebrug online info</text>
    </link>
    <sym>Landmarks-Bridge1</sym>
    <extensions>
      <opencpn:scale_min_max UseScale="True" ScaleMin="160000" ScaleMax="0"></opencpn:scale_min_max>
    </extensions>
  </wpt>
  <wpt lat="50.8960857501796" lon="2.86275804460308">
    <name>Boezingebrug</name>
    <desc>Locatie: Kanaal Ieper-IJzer
Type:    Vaste Brug</desc>
    <link href="https://vaarweginformatie.nl/frp/main/#/geo/detail/BRIDGE/1309719">
      <text>Boezingebrug online info</text>
    </link>
    <sym>Landmarks-Bridge1</sym>
    <extensions>
      <opencpn:scale_min_max UseScale="True" ScaleMin="160000" ScaleMax="0"></opencpn:scale_min_max>
    </extensions>
  </wpt>
  <wpt lat="50.8942981675929" lon="2.86562678804542">
    <name>Voetgangersbrug Boezinge</name>
    <desc>Locatie: Kanaal Ieper-IJzer
Type:    Vaste Brug</desc>
    <link href="https://vaarweginformatie.nl/frp/main/#/geo/detail/BRIDGE/1309721">
      <text>Voetgangersbrug Boezinge online info</text>
    </link>
    <sym>Landmarks-Bridge1</sym>
    <extensions>
      <opencpn:scale_min_max UseScale="True" ScaleMin="160000" ScaleMax="0"></opencpn:scale_min_max>
    </extensions>
  </wpt>
  <wpt lat="50.8701253788022" lon="2.87550947459014">
    <name>Brug - N38</name>
    <desc>Locatie: Kanaal Ieper-IJzer
Type:    Vaste Brug</desc>
    <link href="https://vaarweginformatie.nl/frp/main/#/geo/detail/BRIDGE/1309722">
      <text>Brug - N38 online info</text>
    </link>
    <sym>Landmarks-Bridge1</sym>
    <extensions>
      <opencpn:scale_min_max UseScale="True" ScaleMin="160000" ScaleMax="0"></opencpn:scale_min_max>
    </extensions>
  </wpt>
  <wpt lat="50.9595807917432" lon="2.8232742317981">
    <name>Driegrachtenbrug</name>
    <desc>Locatie: Kanaal Ieper-IJzer
Type:    Vaste Brug</desc>
    <link href="https://vaarweginformatie.nl/frp/main/#/geo/detail/BRIDGE/1309724">
      <text>Driegrachtenbrug online info</text>
    </link>
    <sym>Landmarks-Bridge1</sym>
    <extensions>
      <opencpn:scale_min_max UseScale="True" ScaleMin="160000" ScaleMax="0"></opencpn:scale_min_max>
    </extensions>
  </wpt>
  <wpt lat="50.8312423419753" lon="4.01996866728627">
    <name>Voetbrug 't Oversteekske</name>
    <desc>Locatie: Dender
Type:    Vaste Brug</desc>
    <link href="https://vaarweginformatie.nl/frp/main/#/geo/detail/BRIDGE/1311008">
      <text>Voetbrug 't Oversteekske online info</text>
    </link>
    <sym>Landmarks-Bridge1</sym>
    <extensions>
      <opencpn:scale_min_max UseScale="True" ScaleMin="160000" ScaleMax="0"></opencpn:scale_min_max>
    </extensions>
  </wpt>
  <wpt lat="50.7616452382853" lon="3.86690640088862">
    <name>Maj.Van Lierdebrug Overboelare</name>
    <desc>Locatie: Dender
Type:    Vaste Brug</desc>
    <link href="https://vaarweginformatie.nl/frp/main/#/geo/detail/BRIDGE/1311009">
      <text>Maj.Van Lierdebrug Overboelare online info</text>
    </link>
    <sym>Landmarks-Bridge1</sym>
    <extensions>
      <opencpn:scale_min_max UseScale="True" ScaleMin="160000" ScaleMax="0"></opencpn:scale_min_max>
    </extensions>
  </wpt>
  <wpt lat="50.834361611493" lon="4.0271006570829">
    <name>Oudekaaibrug</name>
    <desc>Locatie: Dender
Type:    Vaste Brug</desc>
    <link href="https://vaarweginformatie.nl/frp/main/#/geo/detail/BRIDGE/1311058">
      <text>Oudekaaibrug online info</text>
    </link>
    <sym>Landmarks-Bridge1</sym>
    <extensions>
      <opencpn:scale_min_max UseScale="True" ScaleMin="160000" ScaleMax="0"></opencpn:scale_min_max>
    </extensions>
  </wpt>
  <wpt lat="50.9348680068885" lon="4.04812419363522">
    <name>Zeebergbrug</name>
    <desc>Locatie: Dender
Type:    Vaste Brug</desc>
    <link href="https://vaarweginformatie.nl/frp/main/#/geo/detail/BRIDGE/1311093">
      <text>Zeebergbrug online info</text>
    </link>
    <sym>Landmarks-Bridge1</sym>
    <extensions>
      <opencpn:scale_min_max UseScale="True" ScaleMin="160000" ScaleMax="0"></opencpn:scale_min_max>
    </extensions>
  </wpt>
  <wpt lat="50.9202334516421" lon="4.06004676338831">
    <name>Brug Erembodegem</name>
    <desc>Locatie: Dender
Type:    Vaste Brug</desc>
    <link href="https://vaarweginformatie.nl/frp/main/#/geo/detail/BRIDGE/1311095">
      <text>Brug Erembodegem online info</text>
    </link>
    <sym>Landmarks-Bridge1</sym>
    <extensions>
      <opencpn:scale_min_max UseScale="True" ScaleMin="160000" ScaleMax="0"></opencpn:scale_min_max>
    </extensions>
  </wpt>
  <wpt lat="50.7642130510954" lon="3.87012235764253">
    <name>Spoorbrug Gent-Charleroi</name>
    <desc>Locatie: Dender
Type:    Vaste Brug</desc>
    <link href="https://vaarweginformatie.nl/frp/main/#/geo/detail/BRIDGE/1311096">
      <text>Spoorbrug Gent-Charleroi online info</text>
    </link>
    <sym>Landmarks-Bridge1</sym>
    <extensions>
      <opencpn:scale_min_max UseScale="True" ScaleMin="160000" ScaleMax="0"></opencpn:scale_min_max>
    </extensions>
  </wpt>
  <wpt lat="51.0312191720118" lon="4.07694528255245">
    <name>Ooiebrug</name>
    <desc>Locatie: Dender
Type:    Vaste Brug</desc>
    <link href="https://vaarweginformatie.nl/frp/main/#/geo/detail/BRIDGE/1311097">
      <text>Ooiebrug online info</text>
    </link>
    <sym>Landmarks-Bridge1</sym>
    <extensions>
      <opencpn:scale_min_max UseScale="True" ScaleMin="160000" ScaleMax="0"></opencpn:scale_min_max>
    </extensions>
  </wpt>
  <wpt lat="50.9407699474168" lon="4.0431698804731">
    <name>St. Annabrug</name>
    <desc>Locatie: Dender
Type:    Vaste Brug</desc>
    <link href="https://vaarweginformatie.nl/frp/main/#/geo/detail/BRIDGE/1311112">
      <text>St. Annabrug online info</text>
    </link>
    <sym>Landmarks-Bridge1</sym>
    <extensions>
      <opencpn:scale_min_max UseScale="True" ScaleMin="160000" ScaleMax="0"></opencpn:scale_min_max>
    </extensions>
  </wpt>
  <wpt lat="50.7777641748147" lon="3.88002058668441">
    <name>Zonnebloembrug</name>
    <desc>Locatie: Dender
Type:    Vaste Brug</desc>
    <link href="https://vaarweginformatie.nl/frp/main/#/geo/detail/BRIDGE/1311113">
      <text>Zonnebloembrug online info</text>
    </link>
    <sym>Landmarks-Bridge1</sym>
    <extensions>
      <opencpn:scale_min_max UseScale="True" ScaleMin="160000" ScaleMax="0"></opencpn:scale_min_max>
    </extensions>
  </wpt>
  <wpt lat="51.0432408226406" lon="4.08351938391981">
    <name>Voetgangersbrug Tijsluis Dendermonde</name>
    <desc>Locatie: Dender
Type:    Vaste Brug</desc>
    <link href="https://vaarweginformatie.nl/frp/main/#/geo/detail/BRIDGE/1311114">
      <text>Voetgangersbrug Tijsluis Dendermonde online info</text>
    </link>
    <sym>Landmarks-Bridge1</sym>
    <extensions>
      <opencpn:scale_min_max UseScale="True" ScaleMin="160000" ScaleMax="0"></opencpn:scale_min_max>
    </extensions>
  </wpt>
  <wpt lat="50.7945026095634" lon="3.90270207230913">
    <name>Schipkensbrug</name>
    <desc>Locatie: Dender
Type:    Vaste Brug</desc>
    <link href="https://vaarweginformatie.nl/frp/main/#/geo/detail/BRIDGE/1311125">
      <text>Schipkensbrug online info</text>
    </link>
    <sym>Landmarks-Bridge1</sym>
    <extensions>
      <opencpn:scale_min_max UseScale="True" ScaleMin="160000" ScaleMax="0"></opencpn:scale_min_max>
    </extensions>
  </wpt>
  <wpt lat="50.7990215255576" lon="3.92973195785329">
    <name>Brug Sluis Idegem</name>
    <desc>Locatie: Dender
Type:    Vaste Brug</desc>
    <link href="https://vaarweginformatie.nl/frp/main/#/geo/detail/BRIDGE/1311221">
      <text>Brug Sluis Idegem online info</text>
    </link>
    <sym>Landmarks-Bridge1</sym>
    <extensions>
      <opencpn:scale_min_max UseScale="True" ScaleMin="160000" ScaleMax="0"></opencpn:scale_min_max>
    </extensions>
  </wpt>
  <wpt lat="50.771608330298" lon="3.88000784043798">
    <name>Grotestraatbrug</name>
    <desc>Locatie: Dender
Type:    Vaste Brug</desc>
    <link href="https://vaarweginformatie.nl/frp/main/#/geo/detail/BRIDGE/1311266">
      <text>Grotestraatbrug online info</text>
    </link>
    <sym>Landmarks-Bridge1</sym>
    <extensions>
      <opencpn:scale_min_max UseScale="True" ScaleMin="160000" ScaleMax="0"></opencpn:scale_min_max>
    </extensions>
  </wpt>
  <wpt lat="50.8039330890526" lon="3.96481421736763">
    <name>Brug Zandbergen</name>
    <desc>Locatie: Dender
Type:    Vaste Brug</desc>
    <link href="https://vaarweginformatie.nl/frp/main/#/geo/detail/BRIDGE/1311267">
      <text>Brug Zandbergen online info</text>
    </link>
    <sym>Landmarks-Bridge1</sym>
    <extensions>
      <opencpn:scale_min_max UseScale="True" ScaleMin="160000" ScaleMax="0"></opencpn:scale_min_max>
    </extensions>
  </wpt>
  <wpt lat="50.9103051349944" lon="4.06538818582529">
    <name>Brug - E40</name>
    <desc>Locatie: Dender
Type:    Vaste Brug</desc>
    <link href="https://vaarweginformatie.nl/frp/main/#/geo/detail/BRIDGE/1311268">
      <text>Brug - E40 online info</text>
    </link>
    <sym>Landmarks-Bridge1</sym>
    <extensions>
      <opencpn:scale_min_max UseScale="True" ScaleMin="160000" ScaleMax="0"></opencpn:scale_min_max>
    </extensions>
  </wpt>
  <wpt lat="50.940528493628" lon="4.04345642250767">
    <name>Voetbrug St-Anna</name>
    <desc>Locatie: Dender
Type:    Vaste Brug</desc>
    <link href="https://vaarweginformatie.nl/frp/main/#/geo/detail/BRIDGE/1311270">
      <text>Voetbrug St-Anna online info</text>
    </link>
    <sym>Landmarks-Bridge1</sym>
    <extensions>
      <opencpn:scale_min_max UseScale="True" ScaleMin="160000" ScaleMax="0"></opencpn:scale_min_max>
    </extensions>
  </wpt>
  <wpt lat="50.9817107763852" lon="4.06625356022271">
    <name>Wiezebrug Gijzegem</name>
    <desc>Locatie: Dender
Type:    Vaste Brug</desc>
    <link href="https://vaarweginformatie.nl/frp/main/#/geo/detail/BRIDGE/1311271">
      <text>Wiezebrug Gijzegem online info</text>
    </link>
    <sym>Landmarks-Bridge1</sym>
    <extensions>
      <opencpn:scale_min_max UseScale="True" ScaleMin="160000" ScaleMax="0"></opencpn:scale_min_max>
    </extensions>
  </wpt>
  <wpt lat="50.8184360563629" lon="3.9943847895731">
    <name>Voetbrug Zwarte fles</name>
    <desc>Locatie: Dender
Type:    Vaste Brug</desc>
    <link href="https://vaarweginformatie.nl/frp/main/#/geo/detail/BRIDGE/1311281">
      <text>Voetbrug Zwarte fles online info</text>
    </link>
    <sym>Landmarks-Bridge1</sym>
    <extensions>
      <opencpn:scale_min_max UseScale="True" ScaleMin="160000" ScaleMax="0"></opencpn:scale_min_max>
    </extensions>
  </wpt>
  <wpt lat="50.945610163588" lon="4.03893121801278">
    <name>Zwarte Hoekbrug</name>
    <desc>Locatie: Dender
Type:    Vaste Brug</desc>
    <link href="https://vaarweginformatie.nl/frp/main/#/geo/detail/BRIDGE/1311282">
      <text>Zwarte Hoekbrug online info</text>
    </link>
    <sym>Landmarks-Bridge1</sym>
    <extensions>
      <opencpn:scale_min_max UseScale="True" ScaleMin="160000" ScaleMax="0"></opencpn:scale_min_max>
    </extensions>
  </wpt>
  <wpt lat="50.8298973253525" lon="4.01386950808955">
    <name>Elizabethbrug</name>
    <desc>Locatie: Dender
Type:    Vaste Brug</desc>
    <link href="https://vaarweginformatie.nl/frp/main/#/geo/detail/BRIDGE/1311285">
      <text>Elizabethbrug online info</text>
    </link>
    <sym>Landmarks-Bridge1</sym>
    <extensions>
      <opencpn:scale_min_max UseScale="True" ScaleMin="160000" ScaleMax="0"></opencpn:scale_min_max>
    </extensions>
  </wpt>
  <wpt lat="51.0167734689997" lon="4.07184679803355">
    <name>Spoorbrug Oudegem</name>
    <desc>Locatie: Dender
Type:    Vaste Brug</desc>
    <link href="https://vaarweginformatie.nl/frp/main/#/geo/detail/BRIDGE/1311286">
      <text>Spoorbrug Oudegem online info</text>
    </link>
    <sym>Landmarks-Bridge1</sym>
    <extensions>
      <opencpn:scale_min_max UseScale="True" ScaleMin="160000" ScaleMax="0"></opencpn:scale_min_max>
    </extensions>
  </wpt>
  <wpt lat="50.7659693383044" lon="3.87993222039413">
    <name>Guilleminbrug</name>
    <desc>Locatie: Dender
Type:    Vaste Brug</desc>
    <link href="https://vaarweginformatie.nl/frp/main/#/geo/detail/BRIDGE/1311287">
      <text>Guilleminbrug online info</text>
    </link>
    <sym>Landmarks-Bridge1</sym>
    <extensions>
      <opencpn:scale_min_max UseScale="True" ScaleMin="160000" ScaleMax="0"></opencpn:scale_min_max>
    </extensions>
  </wpt>
  <wpt lat="50.8741066959499" lon="4.07762635762466">
    <name>brug sluis Denderleeuw</name>
    <desc>Locatie: Dender
Type:    Vaste Brug</desc>
    <link href="https://vaarweginformatie.nl/frp/main/#/geo/detail/BRIDGE/1311292">
      <text>brug sluis Denderleeuw online info</text>
    </link>
    <sym>Landmarks-Bridge1</sym>
    <extensions>
      <opencpn:scale_min_max UseScale="True" ScaleMin="160000" ScaleMax="0"></opencpn:scale_min_max>
    </extensions>
  </wpt>
  <wpt lat="50.9493647972453" lon="4.03695583968951">
    <name>Brug - R41</name>
    <desc>Locatie: Dender
Type:    Vaste Brug</desc>
    <link href="https://vaarweginformatie.nl/frp/main/#/geo/detail/BRIDGE/1311376">
      <text>Brug - R41 online info</text>
    </link>
    <sym>Landmarks-Bridge1</sym>
    <extensions>
      <opencpn:scale_min_max UseScale="True" ScaleMin="160000" ScaleMax="0"></opencpn:scale_min_max>
    </extensions>
  </wpt>
  <wpt lat="50.773249437905" lon="3.8791673204158">
    <name>Wijngaardbrug</name>
    <desc>Locatie: Dender
Type:    Vaste Brug</desc>
    <link href="https://vaarweginformatie.nl/frp/main/#/geo/detail/BRIDGE/1311377">
      <text>Wijngaardbrug online info</text>
    </link>
    <sym>Landmarks-Bridge1</sym>
    <extensions>
      <opencpn:scale_min_max UseScale="True" ScaleMin="160000" ScaleMax="0"></opencpn:scale_min_max>
    </extensions>
  </wpt>
  <wpt lat="50.9275527839221" lon="4.05324548517761">
    <name>Spoorbrug Brussel-Oostende</name>
    <desc>Locatie: Dender
Type:    Vaste Brug</desc>
    <link href="https://vaarweginformatie.nl/frp/main/#/geo/detail/BRIDGE/1311446">
      <text>Spoorbrug Brussel-Oostende online info</text>
    </link>
    <sym>Landmarks-Bridge1</sym>
    <extensions>
      <opencpn:scale_min_max UseScale="True" ScaleMin="160000" ScaleMax="0"></opencpn:scale_min_max>
    </extensions>
  </wpt>
  <wpt lat="50.8357889227138" lon="4.0381753787318">
    <name>Brug - N28</name>
    <desc>Locatie: Dender
Type:    Vaste Brug</desc>
    <link href="https://vaarweginformatie.nl/frp/main/#/geo/detail/BRIDGE/1311503">
      <text>Brug - N28 online info</text>
    </link>
    <sym>Landmarks-Bridge1</sym>
    <extensions>
      <opencpn:scale_min_max UseScale="True" ScaleMin="160000" ScaleMax="0"></opencpn:scale_min_max>
    </extensions>
  </wpt>
  <wpt lat="50.8863928677625" lon="4.08683633275754">
    <name>Brug - N208</name>
    <desc>Locatie: Dender
Type:    Vaste Brug</desc>
    <link href="https://vaarweginformatie.nl/frp/main/#/geo/detail/BRIDGE/1311515">
      <text>Brug - N208 online info</text>
    </link>
    <sym>Landmarks-Bridge1</sym>
    <extensions>
      <opencpn:scale_min_max UseScale="True" ScaleMin="160000" ScaleMax="0"></opencpn:scale_min_max>
    </extensions>
  </wpt>
  <wpt lat="50.8919344491527" lon="4.08159961406844">
    <name>brug sluis Teralfene</name>
    <desc>Locatie: Dender
Type:    Vaste Brug</desc>
    <link href="https://vaarweginformatie.nl/frp/main/#/geo/detail/BRIDGE/1311517">
      <text>brug sluis Teralfene online info</text>
    </link>
    <sym>Landmarks-Bridge1</sym>
    <extensions>
      <opencpn:scale_min_max UseScale="True" ScaleMin="160000" ScaleMax="0"></opencpn:scale_min_max>
    </extensions>
  </wpt>
  <wpt lat="50.7932938700178" lon="3.90123998294622">
    <name>Brug Schendelbeke</name>
    <desc>Locatie: Dender
Type:    Vaste Brug</desc>
    <link href="https://vaarweginformatie.nl/frp/main/#/geo/detail/BRIDGE/1311520">
      <text>Brug Schendelbeke online info</text>
    </link>
    <sym>Landmarks-Bridge1</sym>
    <extensions>
      <opencpn:scale_min_max UseScale="True" ScaleMin="160000" ScaleMax="0"></opencpn:scale_min_max>
    </extensions>
  </wpt>
  <wpt lat="50.854232672102" lon="4.05824858614993">
    <name>Brug Okegem</name>
    <desc>Locatie: Dender
Type:    Vaste Brug</desc>
    <link href="https://vaarweginformatie.nl/frp/main/#/geo/detail/BRIDGE/1311525">
      <text>Brug Okegem online info</text>
    </link>
    <sym>Landmarks-Bridge1</sym>
    <extensions>
      <opencpn:scale_min_max UseScale="True" ScaleMin="160000" ScaleMax="0"></opencpn:scale_min_max>
    </extensions>
  </wpt>
  <wpt lat="50.8331496518546" lon="4.02421064486536">
    <name>Begijnebrug</name>
    <desc>Locatie: Dender
Type:    Vaste Brug</desc>
    <link href="https://vaarweginformatie.nl/frp/main/#/geo/detail/BRIDGE/1311526">
      <text>Begijnebrug online info</text>
    </link>
    <sym>Landmarks-Bridge1</sym>
    <extensions>
      <opencpn:scale_min_max UseScale="True" ScaleMin="160000" ScaleMax="0"></opencpn:scale_min_max>
    </extensions>
  </wpt>
  <wpt lat="50.8941791352994" lon="4.07958369499645">
    <name>Spoorbrug Brussel-Gent</name>
    <desc>Locatie: Dender
Type:    Vaste Brug</desc>
    <link href="https://vaarweginformatie.nl/frp/main/#/geo/detail/BRIDGE/1311554">
      <text>Spoorbrug Brussel-Gent online info</text>
    </link>
    <sym>Landmarks-Bridge1</sym>
    <extensions>
      <opencpn:scale_min_max UseScale="True" ScaleMin="160000" ScaleMax="0"></opencpn:scale_min_max>
    </extensions>
  </wpt>
  <wpt lat="50.8843338127438" lon="4.08501661756313">
    <name>Spoorbrug Brussel-Oostende</name>
    <desc>Locatie: Dender
Type:    Vaste Brug</desc>
    <link href="https://vaarweginformatie.nl/frp/main/#/geo/detail/BRIDGE/1311556">
      <text>Spoorbrug Brussel-Oostende online info</text>
    </link>
    <sym>Landmarks-Bridge1</sym>
    <extensions>
      <opencpn:scale_min_max UseScale="True" ScaleMin="160000" ScaleMax="0"></opencpn:scale_min_max>
    </extensions>
  </wpt>
  <wpt lat="50.9414820919666" lon="4.04262628976509">
    <name>Spoorbrug Brussel-Oostende</name>
    <desc>Locatie: Dender
Type:    Vaste Brug</desc>
    <link href="https://vaarweginformatie.nl/frp/main/#/geo/detail/BRIDGE/1311558">
      <text>Spoorbrug Brussel-Oostende online info</text>
    </link>
    <sym>Landmarks-Bridge1</sym>
    <extensions>
      <opencpn:scale_min_max UseScale="True" ScaleMin="160000" ScaleMax="0"></opencpn:scale_min_max>
    </extensions>
  </wpt>
  <wpt lat="51.0808461257062" lon="4.36675991248579">
    <name>Het Bruggeske</name>
    <desc>Locatie: Aftakking Oude Arm Klein-Willebroek
Type:    Vaste Brug</desc>
    <link href="https://vaarweginformatie.nl/frp/main/#/geo/detail/BRIDGE/1313867">
      <text>Het Bruggeske online info</text>
    </link>
    <sym>Landmarks-Bridge1</sym>
    <extensions>
      <opencpn:scale_min_max UseScale="True" ScaleMin="160000" ScaleMax="0"></opencpn:scale_min_max>
    </extensions>
  </wpt>
  <wpt lat="51.0743040058896" lon="4.36560646956981">
    <name>Victor Dumonbrug</name>
    <desc>Locatie: Aftakking Oude Arm Klein-Willebroek
Type:    Vaste Brug</desc>
    <link href="https://vaarweginformatie.nl/frp/main/#/geo/detail/BRIDGE/1313868">
      <text>Victor Dumonbrug online info</text>
    </link>
    <sym>Landmarks-Bridge1</sym>
    <extensions>
      <opencpn:scale_min_max UseScale="True" ScaleMin="160000" ScaleMax="0"></opencpn:scale_min_max>
    </extensions>
  </wpt>
  <wpt lat="51.2108120240309" lon="3.00222598899118">
    <name>Nieuwe grote Plassendalebrug</name>
    <desc>Locatie: Kanaal Gent-Oostende (vak Brugge-Oostende)
Type:    Vaste Brug</desc>
    <link href="https://vaarweginformatie.nl/frp/main/#/geo/detail/BRIDGE/1314205">
      <text>Nieuwe grote Plassendalebrug online info</text>
    </link>
    <sym>Landmarks-Bridge1</sym>
    <extensions>
      <opencpn:scale_min_max UseScale="True" ScaleMin="160000" ScaleMax="0"></opencpn:scale_min_max>
    </extensions>
  </wpt>
  <wpt lat="51.2221903138749" lon="2.94895442757645">
    <name>Brug opwaarts sas Slijkens</name>
    <desc>Locatie: Kanaal Gent-Oostende (vak Brugge-Oostende)
Type:    Vaste Brug</desc>
    <link href="https://vaarweginformatie.nl/frp/main/#/geo/detail/BRIDGE/1314313">
      <text>Brug opwaarts sas Slijkens online info</text>
    </link>
    <sym>Landmarks-Bridge1</sym>
    <extensions>
      <opencpn:scale_min_max UseScale="True" ScaleMin="160000" ScaleMax="0"></opencpn:scale_min_max>
    </extensions>
  </wpt>
  <wpt lat="51.210440227323" lon="3.00360909890867">
    <name>Oude grote Plassendalebrug</name>
    <desc>Locatie: Kanaal Gent-Oostende (vak Brugge-Oostende)
Type:    Vaste Brug</desc>
    <link href="https://vaarweginformatie.nl/frp/main/#/geo/detail/BRIDGE/1314315">
      <text>Oude grote Plassendalebrug online info</text>
    </link>
    <sym>Landmarks-Bridge1</sym>
    <extensions>
      <opencpn:scale_min_max UseScale="True" ScaleMin="160000" ScaleMax="0"></opencpn:scale_min_max>
    </extensions>
  </wpt>
  <wpt lat="51.2190281984408" lon="3.20974000719657">
    <name>Scheepsdalebrug</name>
    <desc>Locatie: Kanaal Gent-Oostende (vak Brugge-Oostende)
Type:    Vaste Brug</desc>
    <link href="https://vaarweginformatie.nl/frp/main/#/geo/detail/BRIDGE/1314317">
      <text>Scheepsdalebrug online info</text>
    </link>
    <sym>Landmarks-Bridge1</sym>
    <extensions>
      <opencpn:scale_min_max UseScale="True" ScaleMin="160000" ScaleMax="0"></opencpn:scale_min_max>
    </extensions>
  </wpt>
  <wpt lat="51.2216486246228" lon="3.23358193057505">
    <name>Brug benedenhoofd Nieuwe Dampoortsluis</name>
    <desc>Locatie: Kanaal Gent-Oostende (vak Brugge-Oostende)
Type:    Vaste Brug</desc>
    <link href="https://vaarweginformatie.nl/frp/main/#/geo/detail/BRIDGE/1314319">
      <text>Brug benedenhoofd Nieuwe Dampoortsluis online info</text>
    </link>
    <sym>Landmarks-Bridge1</sym>
    <extensions>
      <opencpn:scale_min_max UseScale="True" ScaleMin="160000" ScaleMax="0"></opencpn:scale_min_max>
    </extensions>
  </wpt>
  <wpt lat="51.2031995240101" lon="3.0938866923759">
    <name>Stalhillebrug (in de N377)</name>
    <desc>Locatie: Kanaal Gent-Oostende (vak Brugge-Oostende)
Type:    Vaste Brug</desc>
    <link href="https://vaarweginformatie.nl/frp/main/#/geo/detail/BRIDGE/1314321">
      <text>Stalhillebrug (in de N377) online info</text>
    </link>
    <sym>Landmarks-Bridge1</sym>
    <extensions>
      <opencpn:scale_min_max UseScale="True" ScaleMin="160000" ScaleMax="0"></opencpn:scale_min_max>
    </extensions>
  </wpt>
  <wpt lat="51.2172748448539" lon="3.20142544580912">
    <name>Waggelwaterbrug</name>
    <desc>Locatie: Kanaal Gent-Oostende (vak Brugge-Oostende)
Type:    Vaste Brug</desc>
    <link href="https://vaarweginformatie.nl/frp/main/#/geo/detail/BRIDGE/1314322">
      <text>Waggelwaterbrug online info</text>
    </link>
    <sym>Landmarks-Bridge1</sym>
    <extensions>
      <opencpn:scale_min_max UseScale="True" ScaleMin="160000" ScaleMax="0"></opencpn:scale_min_max>
    </extensions>
  </wpt>
  <wpt lat="51.2172507881795" lon="3.20097445735604">
    <name>Brug N339</name>
    <desc>Locatie: Kanaal Gent-Oostende (vak Brugge-Oostende)
Type:    Vaste Brug</desc>
    <link href="https://vaarweginformatie.nl/frp/main/#/geo/detail/BRIDGE/1314325">
      <text>Brug N339 online info</text>
    </link>
    <sym>Landmarks-Bridge1</sym>
    <extensions>
      <opencpn:scale_min_max UseScale="True" ScaleMin="160000" ScaleMax="0"></opencpn:scale_min_max>
    </extensions>
  </wpt>
  <wpt lat="51.2087529723309" lon="3.1254248193915">
    <name>Nieuwegebrug</name>
    <desc>Locatie: Kanaal Gent-Oostende (vak Brugge-Oostende)
Type:    Vaste Brug</desc>
    <link href="https://vaarweginformatie.nl/frp/main/#/geo/detail/BRIDGE/1314326">
      <text>Nieuwegebrug online info</text>
    </link>
    <sym>Landmarks-Bridge1</sym>
    <extensions>
      <opencpn:scale_min_max UseScale="True" ScaleMin="160000" ScaleMax="0"></opencpn:scale_min_max>
    </extensions>
  </wpt>
  <wpt lat="51.2219632705656" lon="3.22150068955591">
    <name>Krakelebrug</name>
    <desc>Locatie: Kanaal Gent-Oostende (vak Brugge-Oostende)
Type:    Vaste Brug</desc>
    <link href="https://vaarweginformatie.nl/frp/main/#/geo/detail/BRIDGE/1314411">
      <text>Krakelebrug online info</text>
    </link>
    <sym>Landmarks-Bridge1</sym>
    <extensions>
      <opencpn:scale_min_max UseScale="True" ScaleMin="160000" ScaleMax="0"></opencpn:scale_min_max>
    </extensions>
  </wpt>
  <wpt lat="51.2222920304091" lon="3.22704868893374">
    <name>Warandebrug</name>
    <desc>Locatie: Kanaal Gent-Oostende (vak Brugge-Oostende)
Type:    Vaste Brug</desc>
    <link href="https://vaarweginformatie.nl/frp/main/#/geo/detail/BRIDGE/1314437">
      <text>Warandebrug online info</text>
    </link>
    <sym>Landmarks-Bridge1</sym>
    <extensions>
      <opencpn:scale_min_max UseScale="True" ScaleMin="160000" ScaleMax="0"></opencpn:scale_min_max>
    </extensions>
  </wpt>
  <wpt lat="51.2173454849262" lon="3.18871905944023">
    <name>Brug van Mylle - N31</name>
    <desc>Locatie: Kanaal Gent-Oostende (vak Brugge-Oostende)
Type:    Vaste Brug</desc>
    <link href="https://vaarweginformatie.nl/frp/main/#/geo/detail/BRIDGE/1314438">
      <text>Brug van Mylle - N31 online info</text>
    </link>
    <sym>Landmarks-Bridge1</sym>
    <extensions>
      <opencpn:scale_min_max UseScale="True" ScaleMin="160000" ScaleMax="0"></opencpn:scale_min_max>
    </extensions>
  </wpt>
  <wpt lat="51.2037782260962" lon="3.08374414816704">
    <name>Voetgangersbrug Stalhille</name>
    <desc>Locatie: Kanaal Gent-Oostende (vak Brugge-Oostende)
Type:    Vaste Brug</desc>
    <link href="https://vaarweginformatie.nl/frp/main/#/geo/detail/BRIDGE/1314439">
      <text>Voetgangersbrug Stalhille online info</text>
    </link>
    <sym>Landmarks-Bridge1</sym>
    <extensions>
      <opencpn:scale_min_max UseScale="True" ScaleMin="160000" ScaleMax="0"></opencpn:scale_min_max>
    </extensions>
  </wpt>
  <wpt lat="50.9801542936005" lon="2.74185988659294">
    <name>Lobrug</name>
    <desc>Locatie: Lokanaal
Type:    Vaste Brug</desc>
    <link href="https://vaarweginformatie.nl/frp/main/#/geo/detail/BRIDGE/1315567">
      <text>Lobrug online info</text>
    </link>
    <sym>Landmarks-Bridge1</sym>
    <extensions>
      <opencpn:scale_min_max UseScale="True" ScaleMin="160000" ScaleMax="0"></opencpn:scale_min_max>
    </extensions>
  </wpt>
  <wpt lat="50.9719147732783" lon="2.73772949178472">
    <name>Kellenaarsbrug</name>
    <desc>Locatie: Lokanaal
Type:    Vaste Brug</desc>
    <link href="https://vaarweginformatie.nl/frp/main/#/geo/detail/BRIDGE/1315569">
      <text>Kellenaarsbrug online info</text>
    </link>
    <sym>Landmarks-Bridge1</sym>
    <extensions>
      <opencpn:scale_min_max UseScale="True" ScaleMin="160000" ScaleMax="0"></opencpn:scale_min_max>
    </extensions>
  </wpt>
  <wpt lat="50.9572205020828" lon="2.73619131568969">
    <name>Brug over Fintelesluis</name>
    <desc>Locatie: Lokanaal
Type:    Vaste Brug</desc>
    <link href="https://vaarweginformatie.nl/frp/main/#/geo/detail/BRIDGE/1315695">
      <text>Brug over Fintelesluis online info</text>
    </link>
    <sym>Landmarks-Bridge1</sym>
    <extensions>
      <opencpn:scale_min_max UseScale="True" ScaleMin="160000" ScaleMax="0"></opencpn:scale_min_max>
    </extensions>
  </wpt>
  <wpt lat="51.0608183161417" lon="2.67274632502021">
    <name>Brug Albert I laan</name>
    <desc>Locatie: Lokanaal
Type:    Vaste Brug</desc>
    <link href="https://vaarweginformatie.nl/frp/main/#/geo/detail/BRIDGE/1315696">
      <text>Brug Albert I laan online info</text>
    </link>
    <sym>Landmarks-Bridge1</sym>
    <extensions>
      <opencpn:scale_min_max UseScale="True" ScaleMin="160000" ScaleMax="0"></opencpn:scale_min_max>
    </extensions>
  </wpt>
  <wpt lat="51.0679688867034" lon="2.66821208127833">
    <name>Rozebrug</name>
    <desc>Locatie: Lokanaal
Type:    Vaste Brug</desc>
    <link href="https://vaarweginformatie.nl/frp/main/#/geo/detail/BRIDGE/1315697">
      <text>Rozebrug online info</text>
    </link>
    <sym>Landmarks-Bridge1</sym>
    <extensions>
      <opencpn:scale_min_max UseScale="True" ScaleMin="160000" ScaleMax="0"></opencpn:scale_min_max>
    </extensions>
  </wpt>
  <wpt lat="51.0245750498061" lon="2.7162101879169">
    <name>Oerenbrug</name>
    <desc>Locatie: Lokanaal
Type:    Vaste Brug</desc>
    <link href="https://vaarweginformatie.nl/frp/main/#/geo/detail/BRIDGE/1315698">
      <text>Oerenbrug online info</text>
    </link>
    <sym>Landmarks-Bridge1</sym>
    <extensions>
      <opencpn:scale_min_max UseScale="True" ScaleMin="160000" ScaleMax="0"></opencpn:scale_min_max>
    </extensions>
  </wpt>
  <wpt lat="51.0583256894652" lon="2.67557000620166">
    <name>Brug - E40</name>
    <desc>Locatie: Lokanaal
Type:    Vaste Brug</desc>
    <link href="https://vaarweginformatie.nl/frp/main/#/geo/detail/BRIDGE/1315699">
      <text>Brug - E40 online info</text>
    </link>
    <sym>Landmarks-Bridge1</sym>
    <extensions>
      <opencpn:scale_min_max UseScale="True" ScaleMin="160000" ScaleMax="0"></opencpn:scale_min_max>
    </extensions>
  </wpt>
  <wpt lat="51.020520975991" lon="2.72066080079164">
    <name>Zandfoortbrug</name>
    <desc>Locatie: Lokanaal
Type:    Vaste Brug</desc>
    <link href="https://vaarweginformatie.nl/frp/main/#/geo/detail/BRIDGE/1315724">
      <text>Zandfoortbrug online info</text>
    </link>
    <sym>Landmarks-Bridge1</sym>
    <extensions>
      <opencpn:scale_min_max UseScale="True" ScaleMin="160000" ScaleMax="0"></opencpn:scale_min_max>
    </extensions>
  </wpt>
  <wpt lat="50.9654885813583" lon="2.73604746941268">
    <name>Hullebrug</name>
    <desc>Locatie: Lokanaal
Type:    Vaste Brug</desc>
    <link href="https://vaarweginformatie.nl/frp/main/#/geo/detail/BRIDGE/1315725">
      <text>Hullebrug online info</text>
    </link>
    <sym>Landmarks-Bridge1</sym>
    <extensions>
      <opencpn:scale_min_max UseScale="True" ScaleMin="160000" ScaleMax="0"></opencpn:scale_min_max>
    </extensions>
  </wpt>
  <wpt lat="51.0159645689404" lon="2.72794415424387">
    <name>Fortembrug</name>
    <desc>Locatie: Lokanaal
Type:    Vaste Brug</desc>
    <link href="https://vaarweginformatie.nl/frp/main/#/geo/detail/BRIDGE/1315726">
      <text>Fortembrug online info</text>
    </link>
    <sym>Landmarks-Bridge1</sym>
    <extensions>
      <opencpn:scale_min_max UseScale="True" ScaleMin="160000" ScaleMax="0"></opencpn:scale_min_max>
    </extensions>
  </wpt>
  <wpt lat="51.0333246876164" lon="2.70556956295635">
    <name>Millebrug</name>
    <desc>Locatie: Lokanaal
Type:    Vaste Brug</desc>
    <link href="https://vaarweginformatie.nl/frp/main/#/geo/detail/BRIDGE/1315728">
      <text>Millebrug online info</text>
    </link>
    <sym>Landmarks-Bridge1</sym>
    <extensions>
      <opencpn:scale_min_max UseScale="True" ScaleMin="160000" ScaleMax="0"></opencpn:scale_min_max>
    </extensions>
  </wpt>
  <wpt lat="51.0529587021198" lon="2.68097055075599">
    <name>Kortewildebrug</name>
    <desc>Locatie: Lokanaal
Type:    Vaste Brug</desc>
    <link href="https://vaarweginformatie.nl/frp/main/#/geo/detail/BRIDGE/1315729">
      <text>Kortewildebrug online info</text>
    </link>
    <sym>Landmarks-Bridge1</sym>
    <extensions>
      <opencpn:scale_min_max UseScale="True" ScaleMin="160000" ScaleMax="0"></opencpn:scale_min_max>
    </extensions>
  </wpt>
  <wpt lat="51.1043733856287" lon="3.56702793865017">
    <name>Duivekeetbrug</name>
    <desc>Locatie: Afleidingskanaal van de Leie
Type:    Vaste Brug</desc>
    <link href="https://vaarweginformatie.nl/frp/main/#/geo/detail/BRIDGE/1316783">
      <text>Duivekeetbrug online info</text>
    </link>
    <sym>Landmarks-Bridge1</sym>
    <extensions>
      <opencpn:scale_min_max UseScale="True" ScaleMin="160000" ScaleMax="0"></opencpn:scale_min_max>
    </extensions>
  </wpt>
  <wpt lat="51.0323404304317" lon="3.5508933992989">
    <name>Voetgangersbrug</name>
    <desc>Locatie: Afleidingskanaal van de Leie
Type:    Vaste Brug</desc>
    <link href="https://vaarweginformatie.nl/frp/main/#/geo/detail/BRIDGE/1316787">
      <text>Voetgangersbrug online info</text>
    </link>
    <sym>Landmarks-Bridge1</sym>
    <extensions>
      <opencpn:scale_min_max UseScale="True" ScaleMin="160000" ScaleMax="0"></opencpn:scale_min_max>
    </extensions>
  </wpt>
  <wpt lat="51.073471862059" lon="3.56954102394747">
    <name>Merendreebrug</name>
    <desc>Locatie: Afleidingskanaal van de Leie
Type:    Vaste Brug</desc>
    <link href="https://vaarweginformatie.nl/frp/main/#/geo/detail/BRIDGE/1316847">
      <text>Merendreebrug online info</text>
    </link>
    <sym>Landmarks-Bridge1</sym>
    <extensions>
      <opencpn:scale_min_max UseScale="True" ScaleMin="160000" ScaleMax="0"></opencpn:scale_min_max>
    </extensions>
  </wpt>
  <wpt lat="51.1590683430402" lon="3.54702299249519">
    <name>Oostwinkelbrug</name>
    <desc>Locatie: Afleidingskanaal van de Leie
Type:    Vaste Brug</desc>
    <link href="https://vaarweginformatie.nl/frp/main/#/geo/detail/BRIDGE/1316890">
      <text>Oostwinkelbrug online info</text>
    </link>
    <sym>Landmarks-Bridge1</sym>
    <extensions>
      <opencpn:scale_min_max UseScale="True" ScaleMin="160000" ScaleMax="0"></opencpn:scale_min_max>
    </extensions>
  </wpt>
  <wpt lat="50.9866602260062" lon="3.52132500845621">
    <name>Vaartbrug (Belgie)</name>
    <desc>Locatie: Afleidingskanaal van de Leie
Type:    Vaste Brug</desc>
    <link href="https://vaarweginformatie.nl/frp/main/#/geo/detail/BRIDGE/1316935">
      <text>Vaartbrug (Belgie) online info</text>
    </link>
    <sym>Landmarks-Bridge1</sym>
    <extensions>
      <opencpn:scale_min_max UseScale="True" ScaleMin="160000" ScaleMax="0"></opencpn:scale_min_max>
    </extensions>
  </wpt>
  <wpt lat="51.2013702132318" lon="3.51701047900005">
    <name>Brug - N9</name>
    <desc>Locatie: Afleidingskanaal van de Leie
Type:    Vaste Brug</desc>
    <link href="https://vaarweginformatie.nl/frp/main/#/geo/detail/BRIDGE/1316936">
      <text>Brug - N9 online info</text>
    </link>
    <sym>Landmarks-Bridge1</sym>
    <extensions>
      <opencpn:scale_min_max UseScale="True" ScaleMin="160000" ScaleMax="0"></opencpn:scale_min_max>
    </extensions>
  </wpt>
  <wpt lat="51.0654814545347" lon="3.57123716069768">
    <name>Spoorbrug Landegem</name>
    <desc>Locatie: Afleidingskanaal van de Leie
Type:    Vaste Brug</desc>
    <link href="https://vaarweginformatie.nl/frp/main/#/geo/detail/BRIDGE/1316986">
      <text>Spoorbrug Landegem online info</text>
    </link>
    <sym>Landmarks-Bridge1</sym>
    <extensions>
      <opencpn:scale_min_max UseScale="True" ScaleMin="160000" ScaleMax="0"></opencpn:scale_min_max>
    </extensions>
  </wpt>
  <wpt lat="51.1290473403282" lon="3.56366265929363">
    <name>Daalmenbrug</name>
    <desc>Locatie: Afleidingskanaal van de Leie
Type:    Vaste Brug</desc>
    <link href="https://vaarweginformatie.nl/frp/main/#/geo/detail/BRIDGE/1316989">
      <text>Daalmenbrug online info</text>
    </link>
    <sym>Landmarks-Bridge1</sym>
    <extensions>
      <opencpn:scale_min_max UseScale="True" ScaleMin="160000" ScaleMax="0"></opencpn:scale_min_max>
    </extensions>
  </wpt>
  <wpt lat="51.1706062030714" lon="3.53981601179329">
    <name>Veldekensbrug</name>
    <desc>Locatie: Afleidingskanaal van de Leie
Type:    Vaste Brug</desc>
    <link href="https://vaarweginformatie.nl/frp/main/#/geo/detail/BRIDGE/1316990">
      <text>Veldekensbrug online info</text>
    </link>
    <sym>Landmarks-Bridge1</sym>
    <extensions>
      <opencpn:scale_min_max UseScale="True" ScaleMin="160000" ScaleMax="0"></opencpn:scale_min_max>
    </extensions>
  </wpt>
  <wpt lat="51.0570753166239" lon="3.56851188850602">
    <name>Landegembrug</name>
    <desc>Locatie: Afleidingskanaal van de Leie
Type:    Vaste Brug</desc>
    <link href="https://vaarweginformatie.nl/frp/main/#/geo/detail/BRIDGE/1316991">
      <text>Landegembrug online info</text>
    </link>
    <sym>Landmarks-Bridge1</sym>
    <extensions>
      <opencpn:scale_min_max UseScale="True" ScaleMin="160000" ScaleMax="0"></opencpn:scale_min_max>
    </extensions>
  </wpt>
  <wpt lat="51.2040088386936" lon="3.51550815453554">
    <name>Spoorwegbrug</name>
    <desc>Locatie: Afleidingskanaal van de Leie
Type:    Vaste Brug</desc>
    <link href="https://vaarweginformatie.nl/frp/main/#/geo/detail/BRIDGE/1316992">
      <text>Spoorwegbrug online info</text>
    </link>
    <sym>Landmarks-Bridge1</sym>
    <extensions>
      <opencpn:scale_min_max UseScale="True" ScaleMin="160000" ScaleMax="0"></opencpn:scale_min_max>
    </extensions>
  </wpt>
  <wpt lat="51.0916139537406" lon="3.56388612209441">
    <name>Schipdonkbrug</name>
    <desc>Locatie: Afleidingskanaal van de Leie
Type:    Vaste Brug</desc>
    <link href="https://vaarweginformatie.nl/frp/main/#/geo/detail/BRIDGE/1316993">
      <text>Schipdonkbrug online info</text>
    </link>
    <sym>Landmarks-Bridge1</sym>
    <extensions>
      <opencpn:scale_min_max UseScale="True" ScaleMin="160000" ScaleMax="0"></opencpn:scale_min_max>
    </extensions>
  </wpt>
  <wpt lat="51.1896367637264" lon="3.5263509327925">
    <name>Raverschootbrug</name>
    <desc>Locatie: Afleidingskanaal van de Leie
Type:    Vaste Brug</desc>
    <link href="https://vaarweginformatie.nl/frp/main/#/geo/detail/BRIDGE/1316994">
      <text>Raverschootbrug online info</text>
    </link>
    <sym>Landmarks-Bridge1</sym>
    <extensions>
      <opencpn:scale_min_max UseScale="True" ScaleMin="160000" ScaleMax="0"></opencpn:scale_min_max>
    </extensions>
  </wpt>
  <wpt lat="50.989292484191" lon="3.52436349030921">
    <name>Krommebrug</name>
    <desc>Locatie: Afleidingskanaal van de Leie
Type:    Vaste Brug</desc>
    <link href="https://vaarweginformatie.nl/frp/main/#/geo/detail/BRIDGE/1316995">
      <text>Krommebrug online info</text>
    </link>
    <sym>Landmarks-Bridge1</sym>
    <extensions>
      <opencpn:scale_min_max UseScale="True" ScaleMin="160000" ScaleMax="0"></opencpn:scale_min_max>
    </extensions>
  </wpt>
  <wpt lat="51.0953707356448" lon="3.56397039184359">
    <name>brug sluis Schipdonk</name>
    <desc>Locatie: Afleidingskanaal van de Leie
Type:    Vaste Brug</desc>
    <link href="https://vaarweginformatie.nl/frp/main/#/geo/detail/BRIDGE/1316996">
      <text>brug sluis Schipdonk online info</text>
    </link>
    <sym>Landmarks-Bridge1</sym>
    <extensions>
      <opencpn:scale_min_max UseScale="True" ScaleMin="160000" ScaleMax="0"></opencpn:scale_min_max>
    </extensions>
  </wpt>
  <wpt lat="51.1399308054197" lon="3.5584625500513">
    <name>Stoktevijverbrug</name>
    <desc>Locatie: Afleidingskanaal van de Leie
Type:    Vaste Brug</desc>
    <link href="https://vaarweginformatie.nl/frp/main/#/geo/detail/BRIDGE/1316997">
      <text>Stoktevijverbrug online info</text>
    </link>
    <sym>Landmarks-Bridge1</sym>
    <extensions>
      <opencpn:scale_min_max UseScale="True" ScaleMin="160000" ScaleMax="0"></opencpn:scale_min_max>
    </extensions>
  </wpt>
  <wpt lat="51.1165296408531" lon="3.57363539846437">
    <name>Lindekensbrug</name>
    <desc>Locatie: Afleidingskanaal van de Leie
Type:    Vaste Brug</desc>
    <link href="https://vaarweginformatie.nl/frp/main/#/geo/detail/BRIDGE/1316998">
      <text>Lindekensbrug online info</text>
    </link>
    <sym>Landmarks-Bridge1</sym>
    <extensions>
      <opencpn:scale_min_max UseScale="True" ScaleMin="160000" ScaleMax="0"></opencpn:scale_min_max>
    </extensions>
  </wpt>
  <wpt lat="51.0356836173167" lon="3.55308170887978">
    <name>Nevelebrug</name>
    <desc>Locatie: Afleidingskanaal van de Leie
Type:    Vaste Brug</desc>
    <link href="https://vaarweginformatie.nl/frp/main/#/geo/detail/BRIDGE/1317050">
      <text>Nevelebrug online info</text>
    </link>
    <sym>Landmarks-Bridge1</sym>
    <extensions>
      <opencpn:scale_min_max UseScale="True" ScaleMin="160000" ScaleMax="0"></opencpn:scale_min_max>
    </extensions>
  </wpt>
  <wpt lat="51.0512664650132" lon="3.56644518785077">
    <name>Brug - E40</name>
    <desc>Locatie: Afleidingskanaal van de Leie
Type:    Vaste Brug</desc>
    <link href="https://vaarweginformatie.nl/frp/main/#/geo/detail/BRIDGE/1317051">
      <text>Brug - E40 online info</text>
    </link>
    <sym>Landmarks-Bridge1</sym>
    <extensions>
      <opencpn:scale_min_max UseScale="True" ScaleMin="160000" ScaleMax="0"></opencpn:scale_min_max>
    </extensions>
  </wpt>
  <wpt lat="51.2056329635868" lon="3.51542099078206">
    <name>Balgerhoekebrug</name>
    <desc>Locatie: Afleidingskanaal van de Leie
Type:    Vaste Brug</desc>
    <link href="https://vaarweginformatie.nl/frp/main/#/geo/detail/BRIDGE/1317052">
      <text>Balgerhoekebrug online info</text>
    </link>
    <sym>Landmarks-Bridge1</sym>
    <extensions>
      <opencpn:scale_min_max UseScale="True" ScaleMin="160000" ScaleMax="0"></opencpn:scale_min_max>
    </extensions>
  </wpt>
  <wpt lat="51.1377355045035" lon="2.77270002474204">
    <name>Brug over St-Jorissluis</name>
    <desc>Locatie: Verbindingskanaal te Nieuwpoort
Type:    Vaste Brug</desc>
    <link href="https://vaarweginformatie.nl/frp/main/#/geo/detail/BRIDGE/1318299">
      <text>Brug over St-Jorissluis online info</text>
    </link>
    <sym>Landmarks-Bridge1</sym>
    <extensions>
      <opencpn:scale_min_max UseScale="True" ScaleMin="160000" ScaleMax="0"></opencpn:scale_min_max>
    </extensions>
  </wpt>
  <wpt lat="51.1815489634096" lon="2.96188795597559">
    <name>Gistelbrug</name>
    <desc>Locatie: Kanaal Plassendale-Duinkerken
Type:    Vaste Brug</desc>
    <link href="https://vaarweginformatie.nl/frp/main/#/geo/detail/BRIDGE/1318833">
      <text>Gistelbrug online info</text>
    </link>
    <sym>Landmarks-Bridge1</sym>
    <extensions>
      <opencpn:scale_min_max UseScale="True" ScaleMin="160000" ScaleMax="0"></opencpn:scale_min_max>
    </extensions>
  </wpt>
  <wpt lat="51.0723283446761" lon="2.60347640835249">
    <name>Adinkerkebrug</name>
    <desc>Locatie: Kanaal Plassendale-Duinkerken
Type:    Vaste Brug</desc>
    <link href="https://vaarweginformatie.nl/frp/main/#/geo/detail/BRIDGE/1318835">
      <text>Adinkerkebrug online info</text>
    </link>
    <sym>Landmarks-Bridge1</sym>
    <extensions>
      <opencpn:scale_min_max UseScale="True" ScaleMin="160000" ScaleMax="0"></opencpn:scale_min_max>
    </extensions>
  </wpt>
  <wpt lat="51.0744953959863" lon="2.66762352093207">
    <name>Spoorwegbrug</name>
    <desc>Locatie: Kanaal Plassendale-Duinkerken
Type:    Vaste Brug</desc>
    <link href="https://vaarweginformatie.nl/frp/main/#/geo/detail/BRIDGE/1318837">
      <text>Spoorwegbrug online info</text>
    </link>
    <sym>Landmarks-Bridge1</sym>
    <extensions>
      <opencpn:scale_min_max UseScale="True" ScaleMin="160000" ScaleMax="0"></opencpn:scale_min_max>
    </extensions>
  </wpt>
  <wpt lat="51.0701592566503" lon="2.65810755860962">
    <name>Duinkerkebrug</name>
    <desc>Locatie: Kanaal Plassendale-Duinkerken
Type:    Vaste Brug</desc>
    <link href="https://vaarweginformatie.nl/frp/main/#/geo/detail/BRIDGE/1318881">
      <text>Duinkerkebrug online info</text>
    </link>
    <sym>Landmarks-Bridge1</sym>
    <extensions>
      <opencpn:scale_min_max UseScale="True" ScaleMin="160000" ScaleMax="0"></opencpn:scale_min_max>
    </extensions>
  </wpt>
  <wpt lat="51.1876596055829" lon="2.99560361322778">
    <name>Zandvoordebrug</name>
    <desc>Locatie: Kanaal Plassendale-Duinkerken
Type:    Vaste Brug</desc>
    <link href="https://vaarweginformatie.nl/frp/main/#/geo/detail/BRIDGE/1318882">
      <text>Zandvoordebrug online info</text>
    </link>
    <sym>Landmarks-Bridge1</sym>
    <extensions>
      <opencpn:scale_min_max UseScale="True" ScaleMin="160000" ScaleMax="0"></opencpn:scale_min_max>
    </extensions>
  </wpt>
  <wpt lat="51.2062351675195" lon="3.00278870088303">
    <name>Spoorwegbrug Oudenburg</name>
    <desc>Locatie: Kanaal Plassendale-Duinkerken
Type:    Vaste Brug</desc>
    <link href="https://vaarweginformatie.nl/frp/main/#/geo/detail/BRIDGE/1318900">
      <text>Spoorwegbrug Oudenburg online info</text>
    </link>
    <sym>Landmarks-Bridge1</sym>
    <extensions>
      <opencpn:scale_min_max UseScale="True" ScaleMin="160000" ScaleMax="0"></opencpn:scale_min_max>
    </extensions>
  </wpt>
  <wpt lat="51.1644834243403" lon="2.83122306669524">
    <name>Slijpebrug</name>
    <desc>Locatie: Kanaal Plassendale-Duinkerken
Type:    Vaste Brug</desc>
    <link href="https://vaarweginformatie.nl/frp/main/#/geo/detail/BRIDGE/1318904">
      <text>Slijpebrug online info</text>
    </link>
    <sym>Landmarks-Bridge1</sym>
    <extensions>
      <opencpn:scale_min_max UseScale="True" ScaleMin="160000" ScaleMax="0"></opencpn:scale_min_max>
    </extensions>
  </wpt>
  <wpt lat="51.1786565487916" lon="2.93883294765158">
    <name>Voetgangersbrug Snaaskerke</name>
    <desc>Locatie: Kanaal Plassendale-Duinkerken
Type:    Vaste Brug</desc>
    <link href="https://vaarweginformatie.nl/frp/main/#/geo/detail/BRIDGE/1318908">
      <text>Voetgangersbrug Snaaskerke online info</text>
    </link>
    <sym>Landmarks-Bridge1</sym>
    <extensions>
      <opencpn:scale_min_max UseScale="True" ScaleMin="160000" ScaleMax="0"></opencpn:scale_min_max>
    </extensions>
  </wpt>
  <wpt lat="51.1051745410314" lon="2.6997461344383">
    <name>Florizoonebrug</name>
    <desc>Locatie: Kanaal Plassendale-Duinkerken
Type:    Vaste Brug</desc>
    <link href="https://vaarweginformatie.nl/frp/main/#/geo/detail/BRIDGE/1318909">
      <text>Florizoonebrug online info</text>
    </link>
    <sym>Landmarks-Bridge1</sym>
    <extensions>
      <opencpn:scale_min_max UseScale="True" ScaleMin="160000" ScaleMax="0"></opencpn:scale_min_max>
    </extensions>
  </wpt>
  <wpt lat="51.1249897283826" lon="2.75465078694055">
    <name>Oude Spoorwegbrug</name>
    <desc>Locatie: Kanaal Plassendale-Duinkerken
Type:    Vaste Brug</desc>
    <link href="https://vaarweginformatie.nl/frp/main/#/geo/detail/BRIDGE/1319010">
      <text>Oude Spoorwegbrug online info</text>
    </link>
    <sym>Landmarks-Bridge1</sym>
    <extensions>
      <opencpn:scale_min_max UseScale="True" ScaleMin="160000" ScaleMax="0"></opencpn:scale_min_max>
    </extensions>
  </wpt>
  <wpt lat="51.0708102437617" lon="2.65553404725208">
    <name>Brug - N8</name>
    <desc>Locatie: Kanaal Plassendale-Duinkerken
Type:    Vaste Brug</desc>
    <link href="https://vaarweginformatie.nl/frp/main/#/geo/detail/BRIDGE/1319015">
      <text>Brug - N8 online info</text>
    </link>
    <sym>Landmarks-Bridge1</sym>
    <extensions>
      <opencpn:scale_min_max UseScale="True" ScaleMin="160000" ScaleMax="0"></opencpn:scale_min_max>
    </extensions>
  </wpt>
  <wpt lat="51.1361415946852" lon="2.75757927437278">
    <name>Brug over Gravensluis</name>
    <desc>Locatie: Kanaal Plassendale-Duinkerken
Type:    Vaste Brug</desc>
    <link href="https://vaarweginformatie.nl/frp/main/#/geo/detail/BRIDGE/1319042">
      <text>Brug over Gravensluis online info</text>
    </link>
    <sym>Landmarks-Bridge1</sym>
    <extensions>
      <opencpn:scale_min_max UseScale="True" ScaleMin="160000" ScaleMax="0"></opencpn:scale_min_max>
    </extensions>
  </wpt>
  <wpt lat="51.1026874984222" lon="2.69152101242326">
    <name>Wulpenbrug (in de N330)</name>
    <desc>Locatie: Kanaal Plassendale-Duinkerken
Type:    Vaste Brug</desc>
    <link href="https://vaarweginformatie.nl/frp/main/#/geo/detail/BRIDGE/1319043">
      <text>Wulpenbrug (in de N330) online info</text>
    </link>
    <sym>Landmarks-Bridge1</sym>
    <extensions>
      <opencpn:scale_min_max UseScale="True" ScaleMin="160000" ScaleMax="0"></opencpn:scale_min_max>
    </extensions>
  </wpt>
  <wpt lat="51.1205985206511" lon="2.74606076213355">
    <name>Zeltebrug (in de N355)</name>
    <desc>Locatie: Kanaal Plassendale-Duinkerken
Type:    Vaste Brug</desc>
    <link href="https://vaarweginformatie.nl/frp/main/#/geo/detail/BRIDGE/1319044">
      <text>Zeltebrug (in de N355) online info</text>
    </link>
    <sym>Landmarks-Bridge1</sym>
    <extensions>
      <opencpn:scale_min_max UseScale="True" ScaleMin="160000" ScaleMax="0"></opencpn:scale_min_max>
    </extensions>
  </wpt>
  <wpt lat="51.0880138872899" lon="2.67445226697595">
    <name>Voetgangersbrug Veurne - Koksijde</name>
    <desc>Locatie: Kanaal Plassendale-Duinkerken
Type:    Vaste Brug</desc>
    <link href="https://vaarweginformatie.nl/frp/main/#/geo/detail/BRIDGE/1319046">
      <text>Voetgangersbrug Veurne - Koksijde online info</text>
    </link>
    <sym>Landmarks-Bridge1</sym>
    <extensions>
      <opencpn:scale_min_max UseScale="True" ScaleMin="160000" ScaleMax="0"></opencpn:scale_min_max>
    </extensions>
  </wpt>
  <wpt lat="51.0730949140187" lon="2.66762034698296">
    <name>Nieuwpoortbrug</name>
    <desc>Locatie: Kanaal Plassendale-Duinkerken
Type:    Vaste Brug</desc>
    <link href="https://vaarweginformatie.nl/frp/main/#/geo/detail/BRIDGE/1319047">
      <text>Nieuwpoortbrug online info</text>
    </link>
    <sym>Landmarks-Bridge1</sym>
    <extensions>
      <opencpn:scale_min_max UseScale="True" ScaleMin="160000" ScaleMax="0"></opencpn:scale_min_max>
    </extensions>
  </wpt>
  <wpt lat="51.2086922842615" lon="3.00310593224146">
    <name>Nieuwe kleine Plassendalebrug</name>
    <desc>Locatie: Kanaal Plassendale-Duinkerken
Type:    Vaste Brug</desc>
    <link href="https://vaarweginformatie.nl/frp/main/#/geo/detail/BRIDGE/1319048">
      <text>Nieuwe kleine Plassendalebrug online info</text>
    </link>
    <sym>Landmarks-Bridge1</sym>
    <extensions>
      <opencpn:scale_min_max UseScale="True" ScaleMin="160000" ScaleMax="0"></opencpn:scale_min_max>
    </extensions>
  </wpt>
  <wpt lat="51.0730923167694" lon="2.59992102689441">
    <name>Voetgangersbrug Adinkerke</name>
    <desc>Locatie: Kanaal Plassendale-Duinkerken
Type:    Vaste Brug</desc>
    <link href="https://vaarweginformatie.nl/frp/main/#/geo/detail/BRIDGE/1319049">
      <text>Voetgangersbrug Adinkerke online info</text>
    </link>
    <sym>Landmarks-Bridge1</sym>
    <extensions>
      <opencpn:scale_min_max UseScale="True" ScaleMin="160000" ScaleMax="0"></opencpn:scale_min_max>
    </extensions>
  </wpt>
  <wpt lat="51.1744183939973" lon="2.91333693810835">
    <name>Kalsijdebrug Snaaskerke</name>
    <desc>Locatie: Kanaal Plassendale-Duinkerken
Type:    Vaste Brug</desc>
    <link href="https://vaarweginformatie.nl/frp/main/#/geo/detail/BRIDGE/1319050">
      <text>Kalsijdebrug Snaaskerke online info</text>
    </link>
    <sym>Landmarks-Bridge1</sym>
    <extensions>
      <opencpn:scale_min_max UseScale="True" ScaleMin="160000" ScaleMax="0"></opencpn:scale_min_max>
    </extensions>
  </wpt>
  <wpt lat="51.1514530019568" lon="2.80016538096908">
    <name>Rattevallebrug</name>
    <desc>Locatie: Kanaal Plassendale-Duinkerken
Type:    Vaste Brug</desc>
    <link href="https://vaarweginformatie.nl/frp/main/#/geo/detail/BRIDGE/1319067">
      <text>Rattevallebrug online info</text>
    </link>
    <sym>Landmarks-Bridge1</sym>
    <extensions>
      <opencpn:scale_min_max UseScale="True" ScaleMin="160000" ScaleMax="0"></opencpn:scale_min_max>
    </extensions>
  </wpt>
  <wpt lat="51.2098356128353" lon="3.00392506798827">
    <name>Oude kleine Plassendalebrug</name>
    <desc>Locatie: Kanaal Plassendale-Duinkerken
Type:    Vaste Brug</desc>
    <link href="https://vaarweginformatie.nl/frp/main/#/geo/detail/BRIDGE/1319078">
      <text>Oude kleine Plassendalebrug online info</text>
    </link>
    <sym>Landmarks-Bridge1</sym>
    <extensions>
      <opencpn:scale_min_max UseScale="True" ScaleMin="160000" ScaleMax="0"></opencpn:scale_min_max>
    </extensions>
  </wpt>
  <wpt lat="51.0681902524961" lon="2.6643279457856">
    <name>Ieperbrug</name>
    <desc>Locatie: Kanaal Plassendale-Duinkerken
Type:    Vaste Brug</desc>
    <link href="https://vaarweginformatie.nl/frp/main/#/geo/detail/BRIDGE/1319139">
      <text>Ieperbrug online info</text>
    </link>
    <sym>Landmarks-Bridge1</sym>
    <extensions>
      <opencpn:scale_min_max UseScale="True" ScaleMin="160000" ScaleMax="0"></opencpn:scale_min_max>
    </extensions>
  </wpt>
  <wpt lat="51.1717650746404" lon="2.87916074639936">
    <name>Leffingebrug</name>
    <desc>Locatie: Kanaal Plassendale-Duinkerken
Type:    Vaste Brug</desc>
    <link href="https://vaarweginformatie.nl/frp/main/#/geo/detail/BRIDGE/1319204">
      <text>Leffingebrug online info</text>
    </link>
    <sym>Landmarks-Bridge1</sym>
    <extensions>
      <opencpn:scale_min_max UseScale="True" ScaleMin="160000" ScaleMax="0"></opencpn:scale_min_max>
    </extensions>
  </wpt>
  <wpt lat="51.2016726929535" lon="3.005931528401">
    <name>Brug - E40</name>
    <desc>Locatie: Kanaal Plassendale-Duinkerken
Type:    Vaste Brug</desc>
    <link href="https://vaarweginformatie.nl/frp/main/#/geo/detail/BRIDGE/1319222">
      <text>Brug - E40 online info</text>
    </link>
    <sym>Landmarks-Bridge1</sym>
    <extensions>
      <opencpn:scale_min_max UseScale="True" ScaleMin="160000" ScaleMax="0"></opencpn:scale_min_max>
    </extensions>
  </wpt>
  <wpt lat="51.0729527527071" lon="2.66765443323827">
    <name>Voetgangersbrug Veurne</name>
    <desc>Locatie: Kanaal Plassendale-Duinkerken
Type:    Vaste Brug</desc>
    <link href="https://vaarweginformatie.nl/frp/main/#/geo/detail/BRIDGE/1319223">
      <text>Voetgangersbrug Veurne online info</text>
    </link>
    <sym>Landmarks-Bridge1</sym>
    <extensions>
      <opencpn:scale_min_max UseScale="True" ScaleMin="160000" ScaleMax="0"></opencpn:scale_min_max>
    </extensions>
  </wpt>
  <wpt lat="51.0705983507838" lon="2.66809837230871">
    <name>dienstbrug sluis Veurne</name>
    <desc>Locatie: Kanaal Plassendale-Duinkerken
Type:    Vaste Brug</desc>
    <link href="https://vaarweginformatie.nl/frp/main/#/geo/detail/BRIDGE/1319224">
      <text>dienstbrug sluis Veurne online info</text>
    </link>
    <sym>Landmarks-Bridge1</sym>
    <extensions>
      <opencpn:scale_min_max UseScale="True" ScaleMin="160000" ScaleMax="0"></opencpn:scale_min_max>
    </extensions>
  </wpt>
  <wpt lat="51.1213573803075" lon="2.74798390451229">
    <name>Pelikaanbrug</name>
    <desc>Locatie: Kanaal Plassendale-Duinkerken
Type:    Vaste Brug</desc>
    <link href="https://vaarweginformatie.nl/frp/main/#/geo/detail/BRIDGE/1319225">
      <text>Pelikaanbrug online info</text>
    </link>
    <sym>Landmarks-Bridge1</sym>
    <extensions>
      <opencpn:scale_min_max UseScale="True" ScaleMin="160000" ScaleMax="0"></opencpn:scale_min_max>
    </extensions>
  </wpt>
  <wpt lat="51.1333661396229" lon="2.75685404310638">
    <name>brug Veurnesluis</name>
    <desc>Locatie: Kanaal Plassendale-Duinkerken
Type:    Vaste Brug</desc>
    <link href="https://vaarweginformatie.nl/frp/main/#/geo/detail/BRIDGE/1319282">
      <text>brug Veurnesluis online info</text>
    </link>
    <sym>Landmarks-Bridge1</sym>
    <extensions>
      <opencpn:scale_min_max UseScale="True" ScaleMin="160000" ScaleMax="0"></opencpn:scale_min_max>
    </extensions>
  </wpt>
  <wpt lat="51.1781295474578" lon="5.58380414180352">
    <name>Zuid-Willemsvaart km 40.8</name>
    <desc>Type:    Vaste Brug</desc>
    <link href="https://vaarweginformatie.nl/frp/main/#/geo/detail/BRIDGE/1321569">
      <text>Zuid-Willemsvaart km 40.8 online info</text>
    </link>
    <sym>Landmarks-Bridge1</sym>
    <extensions>
      <opencpn:scale_min_max UseScale="True" ScaleMin="160000" ScaleMax="0"></opencpn:scale_min_max>
    </extensions>
  </wpt>
  <wpt lat="50.9901566688253" lon="5.70646065104055">
    <name>Brug 2 Eisden</name>
    <desc>Locatie: Zuid-Willemsvaart
Type:    Vaste Brug</desc>
    <link href="https://vaarweginformatie.nl/frp/main/#/geo/detail/BRIDGE/1321571">
      <text>Brug 2 Eisden online info</text>
    </link>
    <sym>Landmarks-Bridge1</sym>
    <extensions>
      <opencpn:scale_min_max UseScale="True" ScaleMin="160000" ScaleMax="0"></opencpn:scale_min_max>
    </extensions>
  </wpt>
  <wpt lat="51.1628732532466" lon="5.60980749359683">
    <name>Brug Beek</name>
    <desc>Type:    Vaste Brug</desc>
    <link href="https://vaarweginformatie.nl/frp/main/#/geo/detail/BRIDGE/1321652">
      <text>Brug Beek online info</text>
    </link>
    <sym>Landmarks-Bridge1</sym>
    <extensions>
      <opencpn:scale_min_max UseScale="True" ScaleMin="160000" ScaleMax="0"></opencpn:scale_min_max>
    </extensions>
  </wpt>
  <wpt lat="50.948082812704" lon="5.71041014386374">
    <name>Brug Boorsem N.V. Grint Mij.</name>
    <desc>Locatie: Zuid-Willemsvaart
Type:    Vaste Brug</desc>
    <link href="https://vaarweginformatie.nl/frp/main/#/geo/detail/BRIDGE/1321654">
      <text>Brug Boorsem N.V. Grint Mij. online info</text>
    </link>
    <sym>Landmarks-Bridge1</sym>
    <extensions>
      <opencpn:scale_min_max UseScale="True" ScaleMin="160000" ScaleMax="0"></opencpn:scale_min_max>
    </extensions>
  </wpt>
  <wpt lat="50.9100781640664" lon="5.6931234094466">
    <name>Brug Neerharen</name>
    <desc>Locatie: Zuid-Willemsvaart
Type:    Vaste Brug</desc>
    <link href="https://vaarweginformatie.nl/frp/main/#/geo/detail/BRIDGE/1321671">
      <text>Brug Neerharen online info</text>
    </link>
    <sym>Landmarks-Bridge1</sym>
    <extensions>
      <opencpn:scale_min_max UseScale="True" ScaleMin="160000" ScaleMax="0"></opencpn:scale_min_max>
    </extensions>
  </wpt>
  <wpt lat="51.1248481028344" lon="5.6522435643235">
    <name>Brug Tongerlo</name>
    <desc>Type:    Vaste Brug</desc>
    <link href="https://vaarweginformatie.nl/frp/main/#/geo/detail/BRIDGE/1321763">
      <text>Brug Tongerlo online info</text>
    </link>
    <sym>Landmarks-Bridge1</sym>
    <extensions>
      <opencpn:scale_min_max UseScale="True" ScaleMin="160000" ScaleMax="0"></opencpn:scale_min_max>
    </extensions>
  </wpt>
  <wpt lat="51.1162638127154" lon="5.66801475392024">
    <name>Voetgangersbrug Gruitrode Solt</name>
    <desc>Type:    Vaste Brug</desc>
    <link href="https://vaarweginformatie.nl/frp/main/#/geo/detail/BRIDGE/1321765">
      <text>Voetgangersbrug Gruitrode Solt online info</text>
    </link>
    <sym>Landmarks-Bridge1</sym>
    <extensions>
      <opencpn:scale_min_max UseScale="True" ScaleMin="160000" ScaleMax="0"></opencpn:scale_min_max>
    </extensions>
  </wpt>
  <wpt lat="50.9521442822089" lon="5.70990578783557">
    <name>Brug Boorsem E314</name>
    <desc>Locatie: Zuid-Willemsvaart
Type:    Vaste Brug</desc>
    <link href="https://vaarweginformatie.nl/frp/main/#/geo/detail/BRIDGE/1321793">
      <text>Brug Boorsem E314 online info</text>
    </link>
    <sym>Landmarks-Bridge1</sym>
    <extensions>
      <opencpn:scale_min_max UseScale="True" ScaleMin="160000" ScaleMax="0"></opencpn:scale_min_max>
    </extensions>
  </wpt>
  <wpt lat="50.9590660975397" lon="5.70910076022506">
    <name>Brug Maasmechelen</name>
    <desc>Locatie: Zuid-Willemsvaart
Type:    Vaste Brug</desc>
    <link href="https://vaarweginformatie.nl/frp/main/#/geo/detail/BRIDGE/1321882">
      <text>Brug Maasmechelen online info</text>
    </link>
    <sym>Landmarks-Bridge1</sym>
    <extensions>
      <opencpn:scale_min_max UseScale="True" ScaleMin="160000" ScaleMax="0"></opencpn:scale_min_max>
    </extensions>
  </wpt>
  <wpt lat="51.1763151507096" lon="5.59168190096557">
    <name>Brug Bocholt Dorp</name>
    <desc>Locatie: Zuid-Willemsvaart
Type:    Vaste Brug</desc>
    <link href="https://vaarweginformatie.nl/frp/main/#/geo/detail/BRIDGE/1321886">
      <text>Brug Bocholt Dorp online info</text>
    </link>
    <sym>Landmarks-Bridge1</sym>
    <extensions>
      <opencpn:scale_min_max UseScale="True" ScaleMin="160000" ScaleMax="0"></opencpn:scale_min_max>
    </extensions>
  </wpt>
  <wpt lat="51.0576102972671" lon="5.70056337154247">
    <name>Brug Rotem</name>
    <desc>Type:    Vaste Brug</desc>
    <link href="https://vaarweginformatie.nl/frp/main/#/geo/detail/BRIDGE/1321968">
      <text>Brug Rotem online info</text>
    </link>
    <sym>Landmarks-Bridge1</sym>
    <extensions>
      <opencpn:scale_min_max UseScale="True" ScaleMin="160000" ScaleMax="0"></opencpn:scale_min_max>
    </extensions>
  </wpt>
  <wpt lat="50.981639464917" lon="5.70654849416216">
    <name>Brug 1 Eisden</name>
    <desc>Type:    Vaste Brug</desc>
    <link href="https://vaarweginformatie.nl/frp/main/#/geo/detail/BRIDGE/1321970">
      <text>Brug 1 Eisden online info</text>
    </link>
    <sym>Landmarks-Bridge1</sym>
    <extensions>
      <opencpn:scale_min_max UseScale="True" ScaleMin="160000" ScaleMax="0"></opencpn:scale_min_max>
    </extensions>
  </wpt>
  <wpt lat="51.0386483848095" lon="5.70458331409914">
    <name>Brug Dilsen</name>
    <desc>Type:    Vaste Brug</desc>
    <link href="https://vaarweginformatie.nl/frp/main/#/geo/detail/BRIDGE/1321973">
      <text>Brug Dilsen online info</text>
    </link>
    <sym>Landmarks-Bridge1</sym>
    <extensions>
      <opencpn:scale_min_max UseScale="True" ScaleMin="160000" ScaleMax="0"></opencpn:scale_min_max>
    </extensions>
  </wpt>
  <wpt lat="51.1413225102539" lon="5.62167876803128">
    <name>Brug Bree</name>
    <desc>Type:    Vaste Brug</desc>
    <link href="https://vaarweginformatie.nl/frp/main/#/geo/detail/BRIDGE/1321976">
      <text>Brug Bree online info</text>
    </link>
    <sym>Landmarks-Bridge1</sym>
    <extensions>
      <opencpn:scale_min_max UseScale="True" ScaleMin="160000" ScaleMax="0"></opencpn:scale_min_max>
    </extensions>
  </wpt>
  <wpt lat="50.8817089384345" lon="5.67577220100944">
    <name>Brug Lanaken Smeermaas</name>
    <desc>Type:    Vaste Brug</desc>
    <link href="https://vaarweginformatie.nl/frp/main/#/geo/detail/BRIDGE/1321979">
      <text>Brug Lanaken Smeermaas online info</text>
    </link>
    <sym>Landmarks-Bridge1</sym>
    <extensions>
      <opencpn:scale_min_max UseScale="True" ScaleMin="160000" ScaleMax="0"></opencpn:scale_min_max>
    </extensions>
  </wpt>
  <wpt lat="51.1108938311311" lon="5.67784306071372">
    <name>Brug Maaseiker Solt</name>
    <desc>Type:    Vaste Brug</desc>
    <link href="https://vaarweginformatie.nl/frp/main/#/geo/detail/BRIDGE/1321982">
      <text>Brug Maaseiker Solt online info</text>
    </link>
    <sym>Landmarks-Bridge1</sym>
    <extensions>
      <opencpn:scale_min_max UseScale="True" ScaleMin="160000" ScaleMax="0"></opencpn:scale_min_max>
    </extensions>
  </wpt>
  <wpt lat="50.9407673246801" lon="5.71126494629926">
    <name>Brug  Boorsem</name>
    <desc>Locatie: Zuid-Willemsvaart
Type:    Vaste Brug</desc>
    <link href="https://vaarweginformatie.nl/frp/main/#/geo/detail/BRIDGE/1321983">
      <text>Brug  Boorsem online info</text>
    </link>
    <sym>Landmarks-Bridge1</sym>
    <extensions>
      <opencpn:scale_min_max UseScale="True" ScaleMin="160000" ScaleMax="0"></opencpn:scale_min_max>
    </extensions>
  </wpt>
  <wpt lat="50.9724949447634" lon="5.70763703180226">
    <name>Voetgangersbrug Maasmechelen</name>
    <desc>Locatie: Zuid-Willemsvaart
Type:    Vaste Brug</desc>
    <link href="https://vaarweginformatie.nl/frp/main/#/geo/detail/BRIDGE/1321984">
      <text>Voetgangersbrug Maasmechelen online info</text>
    </link>
    <sym>Landmarks-Bridge1</sym>
    <extensions>
      <opencpn:scale_min_max UseScale="True" ScaleMin="160000" ScaleMax="0"></opencpn:scale_min_max>
    </extensions>
  </wpt>
  <wpt lat="50.92129784222" lon="5.7050881649459">
    <name>Brug Rekem</name>
    <desc>Locatie: Zuid-Willemsvaart
Type:    Vaste Brug</desc>
    <link href="https://vaarweginformatie.nl/frp/main/#/geo/detail/BRIDGE/1321985">
      <text>Brug Rekem online info</text>
    </link>
    <sym>Landmarks-Bridge1</sym>
    <extensions>
      <opencpn:scale_min_max UseScale="True" ScaleMin="160000" ScaleMax="0"></opencpn:scale_min_max>
    </extensions>
  </wpt>
  <wpt lat="51.0213505615255" lon="5.7133058535522">
    <name>Brug Lanklaar</name>
    <desc>Locatie: Zuid-Willemsvaart
Type:    Vaste Brug</desc>
    <link href="https://vaarweginformatie.nl/frp/main/#/geo/detail/BRIDGE/1321988">
      <text>Brug Lanklaar online info</text>
    </link>
    <sym>Landmarks-Bridge1</sym>
    <extensions>
      <opencpn:scale_min_max UseScale="True" ScaleMin="160000" ScaleMax="0"></opencpn:scale_min_max>
    </extensions>
  </wpt>
  <wpt lat="51.2209826261883" lon="3.23418490977797">
    <name>Brug bovenhoofd Nieuwe Dampoortsluis</name>
    <desc>Locatie: Kanaal Gent-Oostende (vak Gent-Brugge)
Type:    Vaste Brug</desc>
    <link href="https://vaarweginformatie.nl/frp/main/#/geo/detail/BRIDGE/1324460">
      <text>Brug bovenhoofd Nieuwe Dampoortsluis online info</text>
    </link>
    <sym>Landmarks-Bridge1</sym>
    <extensions>
      <opencpn:scale_min_max UseScale="True" ScaleMin="160000" ScaleMax="0"></opencpn:scale_min_max>
    </extensions>
  </wpt>
  <wpt lat="51.0655643375288" lon="3.70908552281329">
    <name>Wondelgemstraatbrug</name>
    <desc>Locatie: Kanaal Gent-Oostende (vak Gent-Brugge)
Type:    Vaste Brug</desc>
    <link href="https://vaarweginformatie.nl/frp/main/#/geo/detail/BRIDGE/1324654">
      <text>Wondelgemstraatbrug online info</text>
    </link>
    <sym>Landmarks-Bridge1</sym>
    <extensions>
      <opencpn:scale_min_max UseScale="True" ScaleMin="160000" ScaleMax="0"></opencpn:scale_min_max>
    </extensions>
  </wpt>
  <wpt lat="51.0909824531049" lon="3.60340054710704">
    <name>Lovendegembrug</name>
    <desc>Locatie: Kanaal Gent-Oostende (vak Gent-Brugge)
Type:    Vaste Brug</desc>
    <link href="https://vaarweginformatie.nl/frp/main/#/geo/detail/BRIDGE/1324697">
      <text>Lovendegembrug online info</text>
    </link>
    <sym>Landmarks-Bridge1</sym>
    <extensions>
      <opencpn:scale_min_max UseScale="True" ScaleMin="160000" ScaleMax="0"></opencpn:scale_min_max>
    </extensions>
  </wpt>
  <wpt lat="51.0947265007402" lon="3.57337655110258">
    <name>Durmenbrug</name>
    <desc>Locatie: Kanaal Gent-Oostende (vak Gent-Brugge)
Type:    Vaste Brug</desc>
    <link href="https://vaarweginformatie.nl/frp/main/#/geo/detail/BRIDGE/1324699">
      <text>Durmenbrug online info</text>
    </link>
    <sym>Landmarks-Bridge1</sym>
    <extensions>
      <opencpn:scale_min_max UseScale="True" ScaleMin="160000" ScaleMax="0"></opencpn:scale_min_max>
    </extensions>
  </wpt>
  <wpt lat="51.0920985183903" lon="3.6374013503941">
    <name>Bierstalbrug</name>
    <desc>Locatie: Kanaal Gent-Oostende (vak Gent-Brugge)
Type:    Vaste Brug</desc>
    <link href="https://vaarweginformatie.nl/frp/main/#/geo/detail/BRIDGE/1324700">
      <text>Bierstalbrug online info</text>
    </link>
    <sym>Landmarks-Bridge1</sym>
    <extensions>
      <opencpn:scale_min_max UseScale="True" ScaleMin="160000" ScaleMax="0"></opencpn:scale_min_max>
    </extensions>
  </wpt>
  <wpt lat="51.0982118076864" lon="3.49476438682504">
    <name>Bellembrug</name>
    <desc>Locatie: Kanaal Gent-Oostende (vak Gent-Brugge)
Type:    Vaste Brug</desc>
    <link href="https://vaarweginformatie.nl/frp/main/#/geo/detail/BRIDGE/1324701">
      <text>Bellembrug online info</text>
    </link>
    <sym>Landmarks-Bridge1</sym>
    <extensions>
      <opencpn:scale_min_max UseScale="True" ScaleMin="160000" ScaleMax="0"></opencpn:scale_min_max>
    </extensions>
  </wpt>
  <wpt lat="51.1794270262188" lon="3.23394859491935">
    <name>Steenbruggebrug</name>
    <desc>Locatie: Kanaal Gent-Oostende (vak Gent-Brugge)
Type:    Vaste Brug</desc>
    <link href="https://vaarweginformatie.nl/frp/main/#/geo/detail/BRIDGE/1324703">
      <text>Steenbruggebrug online info</text>
    </link>
    <sym>Landmarks-Bridge1</sym>
    <extensions>
      <opencpn:scale_min_max UseScale="True" ScaleMin="160000" ScaleMax="0"></opencpn:scale_min_max>
    </extensions>
  </wpt>
  <wpt lat="51.0644994128782" lon="3.70225640169914">
    <name>Nieuwevaartbrug</name>
    <desc>Locatie: Kanaal Gent-Oostende (vak Gent-Brugge)
Type:    Vaste Brug</desc>
    <link href="https://vaarweginformatie.nl/frp/main/#/geo/detail/BRIDGE/1324705">
      <text>Nieuwevaartbrug online info</text>
    </link>
    <sym>Landmarks-Bridge1</sym>
    <extensions>
      <opencpn:scale_min_max UseScale="True" ScaleMin="160000" ScaleMax="0"></opencpn:scale_min_max>
    </extensions>
  </wpt>
  <wpt lat="51.090830375778" lon="3.52528068344912">
    <name>Hansbekebrug</name>
    <desc>Locatie: Kanaal Gent-Oostende (vak Gent-Brugge)
Type:    Vaste Brug</desc>
    <link href="https://vaarweginformatie.nl/frp/main/#/geo/detail/BRIDGE/1324723">
      <text>Hansbekebrug online info</text>
    </link>
    <sym>Landmarks-Bridge1</sym>
    <extensions>
      <opencpn:scale_min_max UseScale="True" ScaleMin="160000" ScaleMax="0"></opencpn:scale_min_max>
    </extensions>
  </wpt>
  <wpt lat="51.2126331399075" lon="3.24043894770409">
    <name>Sint-Kruispoortbrug II</name>
    <desc>Locatie: Kanaal Gent-Oostende (vak Gent-Brugge)
Type:    Vaste Brug</desc>
    <link href="https://vaarweginformatie.nl/frp/main/#/geo/detail/BRIDGE/1324724">
      <text>Sint-Kruispoortbrug II online info</text>
    </link>
    <sym>Landmarks-Bridge1</sym>
    <extensions>
      <opencpn:scale_min_max UseScale="True" ScaleMin="160000" ScaleMax="0"></opencpn:scale_min_max>
    </extensions>
  </wpt>
  <wpt lat="51.1599161220373" lon="3.2605583808791">
    <name>Moerbruggebrug</name>
    <desc>Locatie: Kanaal Gent-Oostende (vak Gent-Brugge)
Type:    Vaste Brug</desc>
    <link href="https://vaarweginformatie.nl/frp/main/#/geo/detail/BRIDGE/1324725">
      <text>Moerbruggebrug online info</text>
    </link>
    <sym>Landmarks-Bridge1</sym>
    <extensions>
      <opencpn:scale_min_max UseScale="True" ScaleMin="160000" ScaleMax="0"></opencpn:scale_min_max>
    </extensions>
  </wpt>
  <wpt lat="51.084444397784" lon="3.66459144906647">
    <name>Brugsevaartbrug</name>
    <desc>Locatie: Kanaal Gent-Oostende (vak Gent-Brugge)
Type:    Vaste Brug</desc>
    <link href="https://vaarweginformatie.nl/frp/main/#/geo/detail/BRIDGE/1324767">
      <text>Brugsevaartbrug online info</text>
    </link>
    <sym>Landmarks-Bridge1</sym>
    <extensions>
      <opencpn:scale_min_max UseScale="True" ScaleMin="160000" ScaleMax="0"></opencpn:scale_min_max>
    </extensions>
  </wpt>
  <wpt lat="51.107102884463" lon="3.43494580485536">
    <name>Aalterbrug</name>
    <desc>Locatie: Kanaal Gent-Oostende (vak Gent-Brugge)
Type:    Vaste Brug</desc>
    <link href="https://vaarweginformatie.nl/frp/main/#/geo/detail/BRIDGE/1324768">
      <text>Aalterbrug online info</text>
    </link>
    <sym>Landmarks-Bridge1</sym>
    <extensions>
      <opencpn:scale_min_max UseScale="True" ScaleMin="160000" ScaleMax="0"></opencpn:scale_min_max>
    </extensions>
  </wpt>
  <wpt lat="51.2028088124678" lon="3.23511793628994">
    <name>Gentpoortbrug</name>
    <desc>Locatie: Kanaal Gent-Oostende (vak Gent-Brugge)
Type:    Vaste Brug</desc>
    <link href="https://vaarweginformatie.nl/frp/main/#/geo/detail/BRIDGE/1324795">
      <text>Gentpoortbrug online info</text>
    </link>
    <sym>Landmarks-Bridge1</sym>
    <extensions>
      <opencpn:scale_min_max UseScale="True" ScaleMin="160000" ScaleMax="0"></opencpn:scale_min_max>
    </extensions>
  </wpt>
  <wpt lat="51.1994202863374" lon="3.23005070081576">
    <name>Sint-Kathelijnepoortbrug</name>
    <desc>Locatie: Kanaal Gent-Oostende (vak Gent-Brugge)
Type:    Vaste Brug</desc>
    <link href="https://vaarweginformatie.nl/frp/main/#/geo/detail/BRIDGE/1324796">
      <text>Sint-Kathelijnepoortbrug online info</text>
    </link>
    <sym>Landmarks-Bridge1</sym>
    <extensions>
      <opencpn:scale_min_max UseScale="True" ScaleMin="160000" ScaleMax="0"></opencpn:scale_min_max>
    </extensions>
  </wpt>
  <wpt lat="51.116930568215" lon="3.39249564376057">
    <name>Knesselarebrug</name>
    <desc>Locatie: Kanaal Gent-Oostende (vak Gent-Brugge)
Type:    Vaste Brug</desc>
    <link href="https://vaarweginformatie.nl/frp/main/#/geo/detail/BRIDGE/1324851">
      <text>Knesselarebrug online info</text>
    </link>
    <sym>Landmarks-Bridge1</sym>
    <extensions>
      <opencpn:scale_min_max UseScale="True" ScaleMin="160000" ScaleMax="0"></opencpn:scale_min_max>
    </extensions>
  </wpt>
  <wpt lat="51.0660441346839" lon="3.69935063191258">
    <name>Prof. Ghuislainbrug</name>
    <desc>Locatie: Kanaal Gent-Oostende (vak Gent-Brugge)
Type:    Vaste Brug</desc>
    <link href="https://vaarweginformatie.nl/frp/main/#/geo/detail/BRIDGE/1324852">
      <text>Prof. Ghuislainbrug online info</text>
    </link>
    <sym>Landmarks-Bridge1</sym>
    <extensions>
      <opencpn:scale_min_max UseScale="True" ScaleMin="160000" ScaleMax="0"></opencpn:scale_min_max>
    </extensions>
  </wpt>
  <wpt lat="51.0699181138102" lon="3.69319174680979">
    <name>Westerringspoorbrug</name>
    <desc>Locatie: Kanaal Gent-Oostende (vak Gent-Brugge)
Type:    Vaste Brug</desc>
    <link href="https://vaarweginformatie.nl/frp/main/#/geo/detail/BRIDGE/1324854">
      <text>Westerringspoorbrug online info</text>
    </link>
    <sym>Landmarks-Bridge1</sym>
    <extensions>
      <opencpn:scale_min_max UseScale="True" ScaleMin="160000" ScaleMax="0"></opencpn:scale_min_max>
    </extensions>
  </wpt>